address,lat,lng,district,publand,robbery,urban_proj,monitor,idle,school,park,mrt,rob,output,STD_publand,STD_robbery,STD_urban_proj,STD_monitor,STD_idle,DistanceType1_School,DistanceType1_Park,DistanceType1_MRT,DistanceType1_ROB,DistanceType2_School,DistanceType2_Park,DistanceType2_MRT,DistanceType2_ROB,MonitorType1,MonitorType2,Feature1 ,Feature2,Feature3,Feature4,Feature5,Feature6,Feature7,Feature8
臺北市大安區住安里17鄰四維路124巷30號,25.031682,121.547079,大安區,7146045.27,1,1136.14,1851,139.95,0.03777162544,0.2561752907,0.4166789014,1.705919847,1,-0.5239947346,-0.7016062578,-0.6546866293,1.399568561,-0.5577902805,1,1,1,1,1,0,1,0,1,1,0.004031850521,6,2,0.3553129087,0.0009216206627,3860.64034,22.68600766,0
臺北市大安區敦煌里17鄰仁愛路四段266巷12號,25.03685,121.552831,大安區,7146045.27,1,1136.14,1851,139.95,0.1044891274,0.2361325346,0.2276170834,2.426531583,1,-0.5239947346,-0.7016062578,-0.6546866293,1.399568561,-0.5577902805,1,1,1,1,1,0,1,0,1,1,0.005616060598,6,2,0.2841193727,0.001310930082,3860.64034,22.68600766,0
臺北市萬華區新和里29鄰國興路104號,25.027434,121.505405,萬華區,3740889.23,9,885.22,1009,0,0.09733469855,0.1864596366,0.8850378128,0.7076491947,1,-0.8483699905,2.6915004,-0.7762751118,-1.033240729,-0.932768957,1,1,1,1,1,1,0,1,0,0,0.01606254464,7,2,0.1168832148,0.0007013371603,3707.521536,21.9206701,0
臺北市北投區清江里24鄰三合街二段489號,25.126138,121.500981,北投區,32634930.67,3,5682.16,1300,379.25,0.4645502206,0.23159934,0.004137517108,0.7016563504,1,1.904077174,0.1466704068,1.548181508,-0.1924479696,0.0833844054,0,1,1,1,0,0,1,1,0,0,0.0004451534982,5,1,0.1750717694,0.0005397356541,25103.79282,25.87690477,0
臺北市松山區龍田里10鄰延壽街440號,25.056145,121.555758,松山區,4973385.2,0,928.78,1129,97.8,0.06793798734,0.1523998055,0.5865222234,2.576038662,1,-0.7309623912,-1.12574459,-0.7551672116,-0.6865220653,-0.6707259805,1,1,1,0,1,1,0,0,0,0,0.006072696292,5,2,0.8068600162,0.002281699435,4405.124181,22.14221702,0
臺北市南港區三重里15鄰南港路一段4之1號,25.054863,121.619828,南港區,9032463.69,0,2184.24,738,0,0.16425696,0.2483729905,0.1902042158,1.052874787,1,-0.3442944651,-1.12574459,-0.1468080685,-1.816247044,-0.932768957,1,1,1,1,1,0,1,1,0,0,0.007759759942,7,2,0.6028341663,0.001426659603,12239.11069,23.70535894,0
臺北市北投區大同里7鄰光明路71號,25.133012,121.500201,北投區,32634930.67,3,5682.16,1300,379.25,0.07863274357,0.1525666553,0.2206398927,0.9183751117,1,1.904077174,0.1466704068,1.548181508,-0.1924479696,0.0833844054,1,1,1,1,1,1,1,1,0,0,0.002646958254,8,3,0.1129598229,0.0007064423936,25103.79282,25.87690477,1
臺北市內湖區金湖里20鄰康寧路三段71號,25.072189,121.608698,內湖區,11254761.59,1,3157.87,1370,0,0.07955789098,0.1193702403,0.09858608499,1.195479973,1,-0.1325983074,-0.7016062578,0.3249845116,0.009804584201,-0.932768957,1,1,1,1,1,1,1,1,0,1,0.000936256725,8,3,0.1487571081,0.000872613119,8215.154445,24.29395488,1
臺北市內湖區五分里20鄰康寧路三段269號,25.066286,121.611232,內湖區,11254761.59,1,3157.87,1370,0,0.04720082595,0.09556866354,0.04887729329,1.193297879,1,-0.1325983074,-0.7016062578,0.3249845116,0.009804584201,-0.932768957,1,1,1,1,1,1,1,1,0,1,0.0002204815527,8,3,0.09582339139,0.00087102035,8215.154445,24.29395488,1
臺北市松山區富錦里21鄰三民路170號,25.062163,121.56328,松山區,4973385.2,0,928.78,1129,97.8,0.1293143336,0.2349494615,0.6602093012,2.434861547,1,-0.7309623912,-1.12574459,-0.7551672116,-0.6865220653,-0.6707259805,1,1,1,1,1,0,0,0,0,0,0.02005869886,5,1,1.024473096,0.002156653274,4405.124181,22.14221702,0
臺北市萬華區菜園里4鄰西昌街29巷27號,25.04277,121.501425,萬華區,3740889.23,9,885.22,1009,0,0.2625673971,0.2407950187,0.4490345911,0.3085316505,1,-0.8483699905,2.6915004,-0.7762751118,-1.033240729,-0.932768957,1,1,1,1,0,0,1,1,0,0,0.02839017669,6,1,0.0952397007,0.0003057796338,3707.521536,21.9206701,0
臺北市南港區東明里4鄰東明街120號,25.054469,121.600646,南港區,9032463.69,0,2184.24,738,0,0.05428251542,0.01681067873,0.7843238784,3.05942449,1,-0.3442944651,-1.12574459,-0.1468080685,-1.816247044,-0.932768957,1,1,1,0,1,1,0,0,0,0,0.0007157158744,5,2,0.8554170725,0.004145561639,12239.11069,23.70535894,0
臺北市南港區東明里4鄰東明街120號,25.054469,121.600646,南港區,9032463.69,0,2184.24,738,0,0.05428251542,0.01681067873,0.7843238784,3.05942449,1,-0.3442944651,-1.12574459,-0.1468080685,-1.816247044,-0.932768957,1,1,1,0,1,1,0,0,0,0,0.0007157158744,5,2,0.8554170725,0.004145561639,12239.11069,23.70535894,0
臺北市南港區東明里4鄰東明街120號,25.054469,121.600646,南港區,9032463.69,0,2184.24,738,0,0.05428251542,0.01681067873,0.7843238784,3.05942449,1,-0.3442944651,-1.12574459,-0.1468080685,-1.816247044,-0.932768957,1,1,1,0,1,1,0,0,0,0,0.0007157158744,5,2,0.8554170725,0.004145561639,12239.11069,23.70535894,0
臺北市南港區東明里4鄰東明街120號,25.054469,121.600646,南港區,9032463.69,0,2184.24,738,0,0.05428251542,0.01681067873,0.7843238784,3.05942449,1,-0.3442944651,-1.12574459,-0.1468080685,-1.816247044,-0.932768957,1,1,1,0,1,1,0,0,0,0,0.0007157158744,5,2,0.8554170725,0.004145561639,12239.11069,23.70535894,0
臺北市南港區東明里4鄰東明街120號,25.054469,121.600646,南港區,9032463.69,0,2184.24,738,0,0.05428251542,0.01681067873,0.7843238784,3.05942449,1,-0.3442944651,-1.12574459,-0.1468080685,-1.816247044,-0.932768957,1,1,1,0,1,1,0,0,0,0,0.0007157158744,5,2,0.8554170725,0.004145561639,12239.11069,23.70535894,0
臺北市萬華區壽德里9鄰萬大路387巷55號,25.021439,121.499996,萬華區,3740889.23,9,885.22,1009,0,0.03457216156,0.3006785154,0.8164886588,1.096019173,1,-0.8483699905,2.6915004,-0.7762751118,-1.033240729,-0.932768957,1,1,1,1,1,0,0,1,0,0,0.00848748633,6,1,0.1151739336,0.001086242986,3707.521536,21.9206701,0
臺北市北投區大同里7鄰光明路71號,25.133012,121.500201,北投區,32634930.67,3,5682.16,1300,379.25,0.07863274357,0.1525666553,0.2206398927,0.9183751117,1,1.904077174,0.1466704068,1.548181508,-0.1924479696,0.0833844054,1,1,1,1,1,1,1,1,0,0,0.002646958254,8,3,0.1129598229,0.0007064423936,25103.79282,25.87690477,1
臺北市中正區幸福里7鄰忠孝東路一段178號,25.043847,121.526484,中正區,4852832.46,4,760.71,1869,368.2,0.2163971947,0.1824185528,0.2088743977,0.9159315382,1,-0.7424462485,0.570808739,-0.8366090108,1.451576361,0.05377730018,1,1,1,1,0,1,1,1,1,1,0.008245288254,7,2,0.1215380291,0.0004900650285,2596.486067,21.36763512,0
臺北市信義區中行里14鄰福德街221巷3弄4號,25.038097,121.585215,信義區,5953425.42,1,1120.77,1012,282.6,0.07240565168,0.2913661423,0.6312372168,1.406360497,1,-0.6376037335,-0.7016062578,-0.6621344811,-1.024572762,-0.1755772887,1,1,1,1,1,0,0,0,0,0,0.01331693092,5,1,0.4975045054,0.001389684286,5882.831443,22.33069826,0
臺北市松山區莊敬里28鄰撫遠街453號,25.070785,121.564429,松山區,4973385.2,0,928.78,1129,97.8,0.4539469983,0.4145468724,0.9194283015,2.80910024,1,-0.7309623912,-1.12574459,-0.7551672116,-0.6865220653,-0.6707259805,0,0,1,0,0,0,0,0,0,0,0.1730201402,1,0,1.787922172,0.002488131302,4405.124181,22.14221702,0
臺北市大安區仁慈里16鄰仁愛路四段10號,25.03754,121.545302,大安區,7146045.27,1,1136.14,1851,139.95,0.2265998084,0.1514915058,0.2731878408,1.629225841,1,-0.5239947346,-0.7016062578,-0.6546866293,1.399568561,-0.5577902805,1,1,1,1,0,1,1,0,1,1,0.009377977499,6,2,0.3256395775,0.0008801868403,3860.64034,22.68600766,0
臺北市萬華區和德里25鄰西園路二段394號,25.02475,121.490924,萬華區,3740889.23,9,885.22,1009,0,0.36720996,0.2442960563,1.233144442,1.356358642,1,-0.8483699905,2.6915004,-0.7762751118,-1.033240729,-0.932768957,0,1,0,1,0,0,0,0,0,0,0.1106228539,2,0,0.1844650459,0.001344260299,3707.521536,21.9206701,0
臺北市信義區大道里4鄰忠孝東路五段800號,25.043807,121.582085,信義區,5953425.42,1,1120.77,1012,282.6,0.2243069366,0.1805450173,0.03175242844,0.7255534864,1,-0.6376037335,-0.7016062578,-0.6621344811,-1.024572762,-0.1755772887,1,1,1,1,0,1,1,1,0,0,0.001285893962,7,2,0.2183021911,0.0007169500854,5882.831443,22.33069826,0
臺北市信義區西村里8鄰松壽路36號,25.03538,121.568033,信義區,5953425.42,1,1120.77,1012,282.6,0.4054513066,0.1881735493,0.2885154508,1.374862111,1,-0.6376037335,-0.7016062578,-0.6621344811,-1.024572762,-0.1755772887,0,1,1,1,0,1,1,0,0,0,0.02201234732,5,2,0.4410701534,0.001358559398,5882.831443,22.33069826,1
臺北市內湖區南湖里5鄰康寧路三段72之1號,25.070164,121.611328,內湖區,11254761.59,1,3157.87,1370,0,0.09850447959,0.08602471149,0.1878942229,0.9565270815,1,-0.1325983074,-0.7016062578,0.3249845116,0.009804584201,-0.932768957,1,1,1,1,1,1,1,1,0,1,0.001592181718,8,3,0.186211707,0.00069819495,8215.154445,24.29395488,1
臺北市內湖區港墘里1鄰內湖路一段608號,25.078544,121.578434,內湖區,11254761.59,1,3157.87,1370,0,0.177996289,0.1374645005,0.4133360413,2.296069717,1,-0.1325983074,-0.7016062578,0.3249845116,0.009804584201,-0.932768957,1,1,1,1,1,1,1,0,0,1,0.01011357692,7,3,0.3643984154,0.001675963297,8215.154445,24.29395488,1
臺北市北投區一德里19鄰中央北路四段577巷27弄17號,25.127085,121.468027,北投區,32634930.67,3,5682.16,1300,379.25,0.06553087739,0.2472786503,0.1863573006,0.3732268043,1,1.904077174,0.1466704068,1.548181508,-0.1924479696,0.0833844054,1,1,1,1,1,0,1,1,0,0,0.003019805802,7,2,0.1247917071,0.0002870975417,25103.79282,25.87690477,0
臺北市南港區東明里5鄰南港路二段130號,25.05356,121.601617,南港區,9032463.69,0,2184.24,738,0,0.1422957488,0.09417122625,0.6233422626,3.004429437,1,-0.3442944651,-1.12574459,-0.1468080685,-1.816247044,-0.932768957,1,1,1,0,1,1,0,0,0,0,0.008352889267,5,2,0.8598092377,0.004071042598,12239.11069,23.70535894,0
臺北市南港區東明里16鄰南港路二段2號,25.054359,121.60605,南港區,9032463.69,0,2184.24,738,0,0.07658438745,0.05688388628,0.1768485001,2.464904075,1,-0.3442944651,-1.12574459,-0.1468080685,-1.816247044,-0.932768957,1,1,1,0,1,1,1,0,0,0,0.0007704259158,6,3,0.3103167738,0.003339978421,12239.11069,23.70535894,1
臺北市北投區石牌里1鄰自強街178號,25.111073,121.517334,北投區,32634930.67,3,5682.16,1300,379.25,0.2279286909,0.265244903,0.1820508035,1.207292414,1,1.904077174,0.1466704068,1.548181508,-0.1924479696,0.0833844054,1,1,1,1,0,0,1,1,0,0,0.0110062315,6,1,0.1688060993,0.0009286864727,25103.79282,25.87690477,0
臺北市北投區東華里1鄰東華街二段418號,25.121973,121.503029,北投區,32634930.67,3,5682.16,1300,379.25,0.398973262,0.08479330879,0.3832675654,0.2317955496,1,1.904077174,0.1466704068,1.548181508,-0.1924479696,0.0833844054,0,1,1,1,0,1,1,1,0,0,0.01296604254,6,2,0.216758534,0.0001783042689,25103.79282,25.87690477,1
臺北市松山區自強里4鄰三民路62巷9之1號,25.054877,121.565308,松山區,4973385.2,0,928.78,1129,97.8,0.05465760916,0.1989417062,0.2580190825,1.785116745,1,-0.7309623912,-1.12574459,-0.7551672116,-0.6865220653,-0.6707259805,1,1,1,1,1,1,1,0,0,0,0.002805616427,7,3,0.5116183979,0.001581148579,4405.124181,22.14221702,1
臺北市中正區黎明里3鄰市民大道一段100號,25.048445,121.51748,中正區,4852832.46,4,760.71,1869,368.2,0.3121630922,0.1495980675,0.09169204563,0.2312770544,1,-0.7424462485,0.570808739,-0.8366090108,1.451576361,0.05377730018,1,1,1,1,0,1,1,1,1,1,0.004281926411,7,2,0.1106906411,0.0001237437423,2596.486067,21.36763512,0
臺北市南港區鴻福里17鄰成福路118號,25.042213,121.586961,南港區,9032463.69,0,2184.24,738,0,0.1327574821,0.181798911,0.5856615815,1.360781905,1,-0.3442944651,-1.12574459,-0.1468080685,-1.816247044,-0.932768957,1,1,1,1,1,1,0,0,0,0,0.01413503929,6,2,0.9002179745,0.00184387792,12239.11069,23.70535894,0
臺北市萬華區和德里25鄰西園路二段394號,25.02475,121.490924,萬華區,3740889.23,9,885.22,1009,0,0.36720996,0.2442960563,1.233144442,1.356358642,1,-0.8483699905,2.6915004,-0.7762751118,-1.033240729,-0.932768957,0,1,0,1,0,0,0,0,0,0,0.1106228539,2,0,0.1844650459,0.001344260299,3707.521536,21.9206701,0
臺北市信義區興雅里1鄰忠孝東路五段2號,25.040963,121.564805,信義區,5953425.42,1,1120.77,1012,282.6,0.2831210883,0.1741033986,0.02905186442,1.408796602,1,-0.6376037335,-0.7016062578,-0.6621344811,-1.024572762,-0.1755772887,1,1,1,1,0,1,1,0,0,0,0.001432034485,6,2,0.2431381756,0.001392091504,5882.831443,22.33069826,0
臺北市萬華區銘德里3鄰寶興街232號,25.021874,121.495853,萬華區,3740889.23,9,885.22,1009,0,0.01584706144,0.1210932541,1.178140298,0.9753205933,1,-0.8483699905,2.6915004,-0.7762751118,-1.033240729,-0.932768957,1,1,1,1,1,1,0,1,0,0,0.002260818523,7,2,0.1315080614,0.0009666210043,3707.521536,21.9206701,0
臺北市北投區桃源里9鄰中央北路三段53巷10號,25.13768,121.485395,北投區,32634930.67,3,5682.16,1300,379.25,0.2124804115,0.2634911771,0.003318455103,1.681597515,1,1.904077174,0.1466704068,1.548181508,-0.1924479696,0.0833844054,1,1,1,1,0,0,1,0,0,0,0.0001857893959,5,1,0.1198225109,0.00129353655,25103.79282,25.87690477,0
臺北市文山區興邦里7鄰興隆路二段255號,25.002006,121.55171,文山區,15745617.73,1,3150.9,1350,943.56,0.0467765747,0.1546472692,0.771927576,2.011943896,1,0.2952007692,-0.7016062578,0.3216070538,-0.04798185974,1.595383097,1,1,1,1,1,1,0,0,0,0,0.00558402338,6,2,0.48667571,0.001490328812,11663.42054,24.27161609,0
臺北市大安區仁慈里3鄰信義路四段1之14號,25.033562,121.544129,大安區,7146045.27,1,1136.14,1851,139.95,0.08983871478,0.09411630567,0.03687101399,1.487166566,1,-0.5239947346,-0.7016062578,-0.6546866293,1.399568561,-0.5577902805,1,1,1,1,1,1,1,0,1,1,0.00031175504,7,3,0.1104130172,0.0008034395277,3860.64034,22.68600766,1
臺北市大安區敦煌里9鄰安和路一段153號,25.033473,121.552654,大安區,7146045.27,1,1136.14,1851,139.95,0.1266336052,0.1741664343,0.01137158903,2.430314619,1,-0.5239947346,-0.7016062578,-0.6546866293,1.399568561,-0.5577902805,1,1,1,1,1,1,1,0,1,1,0.0002508040745,7,3,0.1560858143,0.001312973862,3860.64034,22.68600766,1
臺北市萬華區和德里25鄰西園路二段394號,25.02475,121.490924,萬華區,3740889.23,9,885.22,1009,0,0.36720996,0.2442960563,1.233144442,1.356358642,1,-0.8483699905,2.6915004,-0.7762751118,-1.033240729,-0.932768957,0,1,0,1,0,0,0,0,0,0,0.1106228539,2,0,0.1844650459,0.001344260299,3707.521536,21.9206701,0
臺北市北投區一德里22鄰大度路三段296巷51號,25.125883,121.467271,北投區,32634930.67,3,5682.16,1300,379.25,0.08835135893,0.1949806952,0.03247345693,0.3875179195,1,1.904077174,0.1466704068,1.548181508,-0.1924479696,0.0833844054,1,1,1,1,1,1,1,1,0,0,0.0005594140526,8,3,0.07895137776,0.0002980907073,25103.79282,25.87690477,1
臺北市中山區大佳里1鄰松江路609號,25.071114,121.533874,中山區,7723327.91,4,1368.209961,1440,1361.68,0.3586416451,0.4679158724,0.7077205962,0.729244695,1,-0.4690027747,0.570808739,-0.5422323236,0.212057138,2.715683806,0,0,1,1,0,0,0,1,0,1,0.1187655078,3,0,0.3068556227,0.0005064199271,5363.42216,17.73615688,0
臺北市松山區松基里14鄰慶城街75號,25.056574,121.547608,松山區,4973385.2,0,928.78,1129,97.8,0.1127945774,0.1207286654,0.5631928367,1.644426181,1,-0.7309623912,-1.12574459,-0.7551672116,-0.6865220653,-0.6707259805,1,1,1,1,1,1,0,0,0,0,0.007669300303,6,2,0.7967160795,0.001456533375,4405.124181,22.14221702,0
臺北市大同區星明里21鄰寧夏路68號,25.056898,121.515407,大同區,2253601.36,6,568.15,868,0,0.03913017209,0.3083898266,0.6051589329,0.5689788444,1,-0.990049073,1.419085404,-0.9299179467,-1.440635159,-0.932768957,1,1,1,1,1,0,0,1,0,0,0.007302662824,6,1,0.1360969902,0.0006555055811,2596.314931,20.97042557,0
臺北市北投區關渡里11鄰關渡路92號,25.118514,121.468892,北投區,32634930.67,3,5682.16,1300,379.25,0.2124073309,0.319771661,0.5881744544,0.2206624967,1,1.904077174,0.1466704068,1.548181508,-0.1924479696,0.0833844054,1,1,1,1,0,0,0,1,0,0,0.03994989413,5,0,0.2800883616,0.0001697403821,25103.79282,25.87690477,0
臺北市北投區榮光里20鄰致遠一路二段118號,25.113579,121.512726,北投區,32634930.67,3,5682.16,1300,379.25,0.231846822,0.240299478,0.3549787082,1.33479689,1,1.904077174,0.1466704068,1.548181508,-0.1924479696,0.0833844054,1,1,1,1,0,0,1,1,0,0,0.01977681173,6,1,0.206781252,0.001026766839,25103.79282,25.87690477,0
臺北市信義區長春里3鄰虎林街82巷82號,25.043258,121.575537,信義區,5953425.42,1,1120.77,1012,282.6,0.09172169742,0.07434696262,0.1658805108,0.08146930082,1,-0.6376037335,-0.7016062578,-0.6621344811,-1.024572762,-0.1755772887,1,1,1,1,1,1,1,1,0,0,0.001131177291,8,3,0.1659745854,0.00008050326168,5882.831443,22.33069826,1
臺北市士林區名山里22鄰中山北路五段858號,25.102298,121.526486,士林區,28233710.05,2,6236.82,1480,457.06,0.1879900868,0.1480736552,0.4428914962,1.426649467,1,1.484816779,-0.2774679255,1.816953498,0.3276300259,0.2918666549,1,1,1,1,1,1,1,0,0,1,0.01232849568,7,3,0.2596517461,0.0009639523428,19076.83111,25.81814465,1
臺北市信義區安康里9鄰信義路五段55號,25.033325,121.56929,信義區,5953425.42,1,1120.77,1012,282.6,0.3866172002,0.2083279988,0.02903752611,1.354731485,1,-0.6376037335,-0.7016062578,-0.6621344811,-1.024572762,-0.1755772887,0,1,1,1,0,1,1,0,0,0,0.002338774914,5,2,0.3119913625,0.001338667475,5882.831443,22.33069826,1
臺北市文山區景慶里19鄰景福街223巷1號,24.994661,121.538441,文山區,15745617.73,1,3150.9,1350,943.56,0.01286150976,0.1310717376,0.3456718617,0.4330007277,1,0.2952007692,-0.7016062578,0.3216070538,-0.04798185974,1.595383097,1,1,1,1,1,1,1,1,0,0,0.0005827268603,8,3,0.2448025545,0.0003207412798,11663.42054,24.27161609,1
臺北市北投區開明里1鄰中和街336號,25.141293,121.499549,北投區,32634930.67,3,5682.16,1300,379.25,0.1642411828,0.117184078,0.582376179,0.3645776503,1,1.904077174,0.1466704068,1.548181508,-0.1924479696,0.0833844054,1,1,1,1,1,1,0,1,0,0,0.01120867493,7,2,0.2159503599,0.0002804443464,25103.79282,25.87690477,0
臺北市松山區新東里19鄰南京東路五段415號,25.051686,121.570725,松山區,4973385.2,0,928.78,1129,97.8,0.3589241237,0.1532816103,0.6747544231,0.9968541978,1,-0.7309623912,-1.12574459,-0.7551672116,-0.6865220653,-0.6707259805,0,1,1,1,0,1,0,1,0,0,0.0371226049,5,1,1.186960157,0.000882953231,4405.124181,22.14221702,0
臺北市大安區敦煌里17鄰仁愛路四段266巷6號,25.037178,121.552801,大安區,7146045.27,1,1136.14,1851,139.95,0.1268322371,0.2585604862,0.2433711913,2.442285827,1,-0.5239947346,-0.7016062578,-0.6546866293,1.399568561,-0.5577902805,1,1,1,1,1,0,1,0,1,1,0.007981067365,6,2,0.3143819573,0.001319441289,3860.64034,22.68600766,0
臺北市文山區興得里26鄰興隆路三段308號,24.991575,121.558605,文山區,15745617.73,1,3150.9,1350,943.56,0.1220593731,0.289974467,0.5510855607,2.171776001,1,0.2952007692,-0.7016062578,0.3216070538,-0.04798185974,1.595383097,1,1,1,1,1,0,0,0,0,0,0.01950517835,5,1,0.4815597004,0.001608722964,11663.42054,24.27161609,0
臺北市大安區古莊里17鄰羅斯福路三段171號,25.021411,121.527686,大安區,7146045.27,1,1136.14,1851,139.95,0.1311755159,0.1353837336,0.03162433653,0.8163341827,1,-0.5239947346,-0.7016062578,-0.6546866293,1.399568561,-0.5577902805,1,1,1,1,1,1,1,1,1,1,0.0005616175759,8,3,0.149091793,0.0004410233294,3860.64034,22.68600766,1
臺北市內湖區瑞光里5鄰瑞光路253巷32號,25.075125,121.578539,內湖區,11254761.59,1,3157.87,1370,0,0.1738755544,0.1600813846,0.6241632298,2.108607041,1,-0.1325983074,-0.7016062578,0.3249845116,0.009804584201,-0.932768957,1,1,1,1,1,1,0,0,0,1,0.01737310883,6,2,0.4790600844,0.001539129227,8215.154445,24.29395488,0
臺北市信義區安康里11鄰虎林街164巷58弄25號,25.038806,121.574393,信義區,5953425.42,1,1120.77,1012,282.6,0.2153514641,0.06790715282,0.2083525836,0.4680012206,1,-0.6376037335,-0.7016062578,-0.6621344811,-1.024572762,-0.1755772887,1,1,1,1,0,1,1,1,0,0,0.003046928345,7,2,0.2458056003,0.000462451799,5882.831443,22.33069826,0
臺北市北投區榮光里22鄰石牌路一段200號,25.115005,121.515215,北投區,32634930.67,3,5682.16,1300,379.25,0.1171831344,0.0700931872,0.005010397886,1.528766604,1,1.904077174,0.1466704068,1.548181508,-0.1924479696,0.0833844054,1,1,1,1,1,1,1,0,0,0,0.00004115410241,7,3,0.04807167988,0.00117597431,25103.79282,25.87690477,1
臺北市中山區中吉里4鄰四平街2號,25.05356,121.530316,中山區,7723327.91,4,1368.209961,1440,1361.68,0.09039654899,0.1210314307,0.3304001525,0.88787269,1,-0.4690027747,0.570808739,-0.5422323236,0.212057138,2.715683806,1,1,1,1,1,1,1,1,0,1,0.003614849804,8,3,0.1083656264,0.000616578257,5363.42216,17.73615688,1
臺北市大安區龍坡里21鄰辛亥路一段143號,25.022268,121.532601,大安區,7146045.27,1,1136.14,1851,139.95,0.07031539955,0.03248101894,0.5109580434,0.452205569,1,-0.5239947346,-0.7016062578,-0.6546866293,1.399568561,-0.5577902805,1,1,1,1,1,1,1,1,1,1,0.001166985161,8,3,0.306877231,0.0002443033868,3860.64034,22.68600766,1
臺北市大安區黎孝里19鄰和平東路三段310號,25.02028,121.556551,大安區,7146045.27,1,1136.14,1851,139.95,0.1424005085,0.05921961403,0.3290495038,2.866788402,1,-0.5239947346,-0.7016062578,-0.6546866293,1.399568561,-0.5577902805,1,1,1,0,1,1,1,0,1,1,0.002774842598,6,3,0.2653348132,0.001548778175,3860.64034,22.68600766,1
臺北市信義區黎順里17鄰基隆路二段201之1號,25.024443,121.553045,信義區,5953425.42,1,1120.77,1012,282.6,0.2034799129,0.1578217885,0.0686580655,2.234469926,1,-0.6376037335,-0.7016062578,-0.6621344811,-1.024572762,-0.1755772887,1,1,1,1,0,1,1,0,0,0,0.002204855166,6,2,0.2149798835,0.002207974236,5882.831443,22.33069826,0
臺北市文山區樟腳里12鄰木新路三段95巷50號,24.980609,121.562053,文山區,15745617.73,1,3150.9,1350,943.56,0.135347908,0.2487438251,1.573092256,3.011285286,1,0.2952007692,-0.7016062578,0.3216070538,-0.04798185974,1.595383097,1,1,0,0,1,0,0,0,0,0,0.05296122834,3,1,0.9785919944,0.002230581693,11663.42054,24.27161609,0
臺北市南港區新富里15鄰忠孝東路七段639號,25.053329,121.616085,南港區,9032463.69,0,2184.24,738,0,0.3415276627,0.1146063188,0.1789097713,1.409058078,1,-0.3442944651,-1.12574459,-0.1468080685,-1.816247044,-0.932768957,0,1,1,1,0,1,1,0,0,0,0.007002748181,5,2,0.6350437527,0.001909292789,12239.11069,23.70535894,1
臺北市大安區光信里8鄰光復南路580號,25.033456,121.557325,大安區,7146045.27,1,1136.14,1851,139.95,0.1619107297,0.261450055,0.4301297337,2.677755237,1,-0.5239947346,-0.7016062578,-0.6546866293,1.399568561,-0.5577902805,1,1,1,0,1,0,1,0,1,1,0.01820806658,5,2,0.4267452592,0.001446653289,3860.64034,22.68600766,0
臺北市文山區景華里13鄰三福街76號,24.997814,121.544088,文山區,15745617.73,1,3150.9,1350,943.56,0.1232566772,0.162797807,0.5620852913,0.9200647085,1,0.2952007692,-0.7016062578,0.3216070538,-0.04798185974,1.595383097,1,1,1,1,1,1,0,1,0,0,0.01127875666,7,2,0.4240698877,0.0006815294137,11663.42054,24.27161609,0
臺北市中山區江寧里19鄰錦州街459號,25.06031,121.543572,中山區,7723327.91,4,1368.209961,1440,1361.68,0.02039776952,0.1855558762,0.0847462337,0.9780483416,1,-0.4690027747,0.570808739,-0.5422323236,0.212057138,2.715683806,1,1,1,1,1,1,1,1,0,1,0.0003207582229,8,3,0.05813997588,0.0006792002372,5363.42216,17.73615688,1
臺北市松山區中正里11鄰南京東路三段348號,25.051561,121.548174,松山區,4973385.2,0,928.78,1129,97.8,0.155872924,0.298277569,0.2832169777,1.999132719,1,-0.7309623912,-1.12574459,-0.7551672116,-0.6865220653,-0.6707259805,1,1,1,1,1,0,1,0,0,0,0.01316771934,6,2,0.7373674707,0.001770711,4405.124181,22.14221702,0
臺北市大安區法治里6鄰通化街265號,25.02588,121.552445,大安區,7146045.27,1,1136.14,1851,139.95,0.1009133306,0.1125497273,0.1505172565,2.084090131,1,-0.5239947346,-0.7016062578,-0.6546866293,1.399568561,-0.5577902805,1,1,1,1,1,1,1,0,1,1,0.001709540055,7,3,0.1819901572,0.001125926597,3860.64034,22.68600766,1
臺北市南港區東明里13鄰東明街2號,25.055916,121.605496,南港區,9032463.69,0,2184.24,738,0,0.0757983286,0.1283585664,0.3292281549,2.435749008,1,-0.3442944651,-1.12574459,-0.1468080685,-1.816247044,-0.932768957,1,1,1,1,1,1,1,0,0,0,0.003203180819,7,3,0.5333850499,0.003300472911,12239.11069,23.70535894,1
臺北市南港區合成里24鄰忠孝東路六段451號,25.050611,121.593796,南港區,9032463.69,0,2184.24,738,0,0.2482877978,0.01368386225,0.002606321151,2.377926013,1,-0.3442944651,-1.12574459,-0.1468080685,-1.816247044,-0.932768957,1,1,1,1,0,1,1,0,0,0,0.000008855069999,6,2,0.2645779812,0.003222121969,12239.11069,23.70535894,0
臺北市大安區古莊里3鄰羅斯福路二段101巷47號,25.024747,121.526856,大安區,7146045.27,1,1136.14,1851,139.95,0.1423953986,0.1774193379,0.2659379895,0.6252510998,1,-0.5239947346,-0.7016062578,-0.6546866293,1.399568561,-0.5577902805,1,1,1,1,1,1,1,1,1,1,0.006718576874,8,3,0.292876363,0.0003377909778,3860.64034,22.68600766,1
臺北市大安區龍坡里6鄰和平東路一段280號,25.025939,121.534206,大安區,7146045.27,1,1136.14,1851,139.95,0.1816391174,0.3595985789,0.46476851,0.06013710189,1,-0.5239947346,-0.7016062578,-0.6546866293,1.399568561,-0.5577902805,1,1,1,1,1,0,1,1,1,1,0.03035736307,7,2,0.5030031031,0.00003248897995,3860.64034,22.68600766,0
臺北市大安區學府里1鄰羅斯福路四段131之1號,25.01057,121.537449,大安區,7146045.27,1,1136.14,1851,139.95,0.09551182514,0.2635150683,0.5447631502,0.8801512588,1,-0.5239947346,-0.7016062578,-0.6546866293,1.399568561,-0.5577902805,1,1,1,1,1,0,1,1,1,1,0.01371103757,7,2,0.4518950218,0.0004755004099,3860.64034,22.68600766,0
臺北市大安區華聲里9鄰忠孝東路四段343號,25.041558,121.557436,大安區,7146045.27,1,1136.14,1851,139.95,0.1192616542,0.2441297882,0.0662741964,2.193773268,1,-0.5239947346,-0.7016062578,-0.6546866293,1.399568561,-0.5577902805,1,1,1,1,1,0,1,0,1,1,0.001929594593,6,2,0.2148328194,0.001185182749,3860.64034,22.68600766,0
臺北市北投區清江里24鄰三合街二段489號,25.126138,121.500981,北投區,32634930.67,3,5682.16,1300,379.25,0.4645502206,0.23159934,0.004137517108,0.7016563504,1,1.904077174,0.1466704068,1.548181508,-0.1924479696,0.0833844054,0,1,1,1,0,0,1,1,0,0,0.0004451534982,5,1,0.1750717694,0.0005397356541,25103.79282,25.87690477,0
臺北市松山區慈祐里1鄰松河街266號,25.051921,121.579334,松山區,4973385.2,0,928.78,1129,97.8,0.04893600143,0.1868045301,0.2133719328,0.8454728142,1,-0.7309623912,-1.12574459,-0.7551672116,-0.6865220653,-0.6707259805,1,1,1,1,1,1,1,1,0,0,0.001950532429,8,3,0.4491124643,0.0007488687459,4405.124181,22.14221702,1
臺北市大安區福住里1鄰新生南路二段32號,25.0312,121.533123,大安區,7146045.27,1,1136.14,1851,139.95,0,0.3104412062,0.2791728823,0.3746017241,1,-0.5239947346,-0.7016062578,-0.6546866293,1.399568561,-0.5577902805,1,1,1,1,1,0,1,1,1,1,0,7,2,0.2948070443,0.0002023780249,3860.64034,22.68600766,0
臺北市南港區新富里14鄰研究院路一段191號,25.049358,121.615911,南港區,9032463.69,0,2184.24,738,0,0.1853365502,0.06680677384,0.4298090243,1.659952519,1,-0.3442944651,-1.12574459,-0.1468080685,-1.816247044,-0.932768957,1,1,1,1,1,1,1,0,0,0,0.005321782296,7,3,0.6819523483,0.002249258156,12239.11069,23.70535894,1
臺北市士林區名山里22鄰中山北路五段858號,25.102298,121.526486,士林區,28233710.05,2,6236.82,1480,457.06,0.1879900868,0.1480736552,0.4428914962,1.426649467,1,1.484816779,-0.2774679255,1.816953498,0.3276300259,0.2918666549,1,1,1,1,1,1,1,0,0,1,0.01232849568,7,3,0.2596517461,0.0009639523428,19076.83111,25.81814465,1
臺北市信義區大道里4鄰忠孝東路五段800號,25.043807,121.582085,信義區,5953425.42,1,1120.77,1012,282.6,0.2243069366,0.1805450173,0.03175242844,0.7255534864,1,-0.6376037335,-0.7016062578,-0.6621344811,-1.024572762,-0.1755772887,1,1,1,1,0,1,1,1,0,0,0.001285893962,7,2,0.2183021911,0.0007169500854,5882.831443,22.33069826,0
臺北市大安區黎和里6鄰和平東路三段662號,25.01247,121.563181,大安區,7146045.27,1,1136.14,1851,139.95,0.6736625156,0.4730967449,0.8630989732,3.248343805,1,-0.5239947346,-0.7016062578,-0.6546866293,1.399568561,-0.5577902805,0,0,1,0,0,0,0,0,1,1,0.2750761533,1,0,1.004929117,0.001754912915,3860.64034,22.68600766,0
臺北市大安區古莊里3鄰羅斯福路二段101巷47號,25.024747,121.526856,大安區,7146045.27,1,1136.14,1851,139.95,0.1423953986,0.1774193379,0.2659379895,0.6252510998,1,-0.5239947346,-0.7016062578,-0.6546866293,1.399568561,-0.5577902805,1,1,1,1,1,1,1,1,1,1,0.006718576874,8,3,0.292876363,0.0003377909778,3860.64034,22.68600766,1
臺北市大安區敦安里5鄰敦化南路一段295巷54號,25.03534,121.552156,大安區,7146045.27,1,1136.14,1851,139.95,0.05189095009,0.2233223627,0.1539106722,2.354477225,1,-0.5239947346,-0.7016062578,-0.6546866293,1.399568561,-0.5577902805,1,1,1,1,1,0,1,0,1,1,0.001783579907,6,2,0.2145619925,0.001272002823,3860.64034,22.68600766,0
臺北市中正區建國里2鄰博愛路172之1號,25.037243,121.510845,中正區,4852832.46,4,760.71,1869,368.2,0.1629747019,0.4424812299,0.128339688,0.6910190585,1,-0.7424462485,0.570808739,-0.8366090108,1.451576361,0.05377730018,1,0,1,1,1,0,1,1,1,1,0.009254991559,6,2,0.146759124,0.0003697266231,2596.486067,21.36763512,1
臺北市中正區水源里1鄰羅斯福路四段52巷16弄2號,25.0145,121.533581,中正區,4852832.46,4,760.71,1869,368.2,0.1575635713,0.2597127121,0.04236775913,0.2212660726,1,-0.7424462485,0.570808739,-0.8366090108,1.451576361,0.05377730018,1,1,1,1,1,0,1,1,1,1,0.00173374219,7,2,0.09192880851,0.0001183874118,2596.486067,21.36763512,0
臺北市中正區文盛里10鄰汀州路三段173號,25.015044,121.532459,中正區,4852832.46,4,760.71,1869,368.2,0.1919112663,0.1032646341,0.1355213251,0.07110267003,1,-0.7424462485,0.570808739,-0.8366090108,1.451576361,0.05377730018,1,1,1,1,1,1,1,1,1,1,0.002685713741,8,3,0.08613944511,0.00003804316213,2596.486067,21.36763512,1
臺北市南港區東新里3鄰興南街64巷4弄29號,25.055489,121.600593,南港區,9032463.69,0,2184.24,738,0,0.1078368018,0.08215536479,0.8496683577,3.005868644,1,-0.3442944651,-1.12574459,-0.1468080685,-1.816247044,-0.932768957,1,1,1,0,1,1,0,0,0,0,0.007527527876,5,2,1.039660524,0.004072992743,12239.11069,23.70535894,0
臺北市萬華區和德里8鄰艋舺大道460號,25.028324,121.490848,萬華區,3740889.23,9,885.22,1009,0,0.1993713062,0.4072508404,1.381709727,1.157153212,1,-0.8483699905,2.6915004,-0.7762751118,-1.033240729,-0.932768957,1,0,0,1,0,0,0,1,0,0,0.1121867219,3,0,0.1988331873,0.001146831726,3707.521536,21.9206701,0
臺北市大安區古莊里8鄰浦城街6巷6號,25.023997,121.526432,大安區,7146045.27,1,1136.14,1851,139.95,0.138854793,0.2509945804,0.2694759421,0.5344681957,1,-0.5239947346,-0.7016062578,-0.6546866293,1.399568561,-0.5577902805,1,1,1,1,1,0,1,1,1,1,0.00939172178,7,2,0.3296626578,0.0002887456487,3860.64034,22.68600766,0
臺北市中山區金泰里8鄰敬業三路196號,25.077881,121.556584,中山區,7723327.91,4,1368.209961,1440,1361.68,0.1750386261,0.1149809626,0.4384253326,2.869686522,1,-0.4690027747,0.570808739,-0.5422323236,0.212057138,2.715683806,1,1,1,0,1,1,1,0,0,1,0.00882379635,6,3,0.1456889843,0.001992837863,5363.42216,17.73615688,1
臺北市大同區南芳里9鄰延平北路二段288號,25.062615,121.510763,大同區,2253601.36,6,568.15,868,0,0,0.2737922639,0.1304769724,0,1,-0.990049073,1.419085404,-0.9299179467,-1.440635159,-0.932768957,1,1,1,1,1,0,1,1,0,0,0,7,2,0.05775274804,0,2596.314931,20.97042557,0
臺北市內湖區湖元里18鄰舊宗路二段2號,25.066109,121.574701,內湖區,11254761.59,1,3157.87,1370,0,0.4548848359,0.4297603001,0.8131454728,1.394663897,1,-0.1325983074,-0.7016062578,0.3249845116,0.009804584201,-0.932768957,0,0,1,1,0,0,0,0,0,1,0.1589629823,2,0,0.8488953044,0.001018002844,8215.154445,24.29395488,0
臺北市大安區龍泉里3鄰師大路71號,25.023681,121.528589,大安區,7146045.27,1,1136.14,1851,139.95,0.101295643,0.07734515494,0.2278382636,0.7847445165,1,-0.5239947346,-0.7016062578,-0.6546866293,1.399568561,-0.5577902805,1,1,1,1,1,1,1,1,1,1,0.001785050642,8,3,0.2032395308,0.0004239570591,3860.64034,22.68600766,1
臺北市大安區敦安里16鄰安和路一段78巷45號,25.035128,121.549725,大安區,7146045.27,1,1136.14,1851,139.95,0.1383749096,0.1503343184,0.3666120046,2.096412699,1,-0.5239947346,-0.7016062578,-0.6546866293,1.399568561,-0.5577902805,1,1,1,1,1,1,1,0,1,1,0.007626445389,7,3,0.3276606163,0.001132583846,3860.64034,22.68600766,1
臺北市北投區榮光里22鄰石牌路一段200號,25.115005,121.515215,北投區,32634930.67,3,5682.16,1300,379.25,0.1171831344,0.0700931872,0.005010397886,1.528766604,1,1.904077174,0.1466704068,1.548181508,-0.1924479696,0.0833844054,1,1,1,1,1,1,1,0,0,0,0.00004115410241,7,3,0.04807167988,0.00117597431,25103.79282,25.87690477,1
臺北市文山區萬祥里16鄰興隆路一段102巷27號,25.002124,121.541275,文山區,15745617.73,1,3150.9,1350,943.56,0.1900132391,0.1518904626,0.2205900233,0.8579193693,1,0.2952007692,-0.7016062578,0.3216070538,-0.04798185974,1.595383097,1,1,1,1,1,1,1,1,0,0,0.006366492512,8,3,0.2812468625,0.0006354958291,11663.42054,24.27161609,1
臺北市大同區鄰江里1鄰酒泉街228巷1號,25.071878,121.510009,大同區,2253601.36,6,568.15,868,0,0.3084616329,0.2670831231,0.6654049932,0.4591365269,1,-0.990049073,1.419085404,-0.9299179467,-1.440635159,-0.932768957,1,1,1,1,0,0,0,1,0,0,0.05481932135,5,0,0.1772785356,0.0005289591324,2596.314931,20.97042557,0
臺北市大安區昌隆里12鄰忠孝東路三段217巷5弄5之1號,25.043261,121.539384,大安區,7146045.27,1,1136.14,1851,139.95,0.06843115576,0.2144628595,0.5032922768,1.303816477,1,-0.5239947346,-0.7016062578,-0.6546866293,1.399568561,-0.5577902805,1,1,1,1,1,0,1,1,1,1,0.007386287934,7,2,0.393093146,0.0007043849148,3860.64034,22.68600766,0
臺北市文山區興邦里7鄰興隆路二段255號,25.002006,121.55171,文山區,15745617.73,1,3150.9,1350,943.56,0.0467765747,0.1546472692,0.771927576,2.011943896,1,0.2952007692,-0.7016062578,0.3216070538,-0.04798185974,1.595383097,1,1,1,1,1,1,0,0,0,0,0.00558402338,6,2,0.48667571,0.001490328812,11663.42054,24.27161609,0
臺北市北投區福興里5鄰自強街5巷170號,25.112812,121.510588,北投區,32634930.67,3,5682.16,1300,379.25,0.1302593165,0.08776931953,0.6373725476,1.141551227,1,1.904077174,0.1466704068,1.548181508,-0.1924479696,0.0833844054,1,1,1,1,1,1,0,1,0,0,0.007286934741,7,2,0.2138502959,0.0008781163285,25103.79282,25.87690477,0
臺北市大同區建泰里15鄰南京西路228號,25.053419,121.516356,大同區,2253601.36,6,568.15,868,0,0.06957331069,0.1973393809,0.3289429644,0.4806096884,1,-0.990049073,1.419085404,-0.9299179467,-1.440635159,-0.932768957,1,1,1,1,1,1,1,1,0,0,0.004516240212,8,3,0.08512223657,0.0005536977977,2596.314931,20.97042557,1
臺北市萬華區忠德里1鄰東園街28巷28號,25.026907,121.495271,萬華區,3740889.23,9,885.22,1009,0,0.1207389846,0.1707717935,0.9721339014,0.747577599,1,-0.8483699905,2.6915004,-0.7762751118,-1.033240729,-0.932768957,1,1,1,1,1,1,0,1,0,0,0.02004424707,7,2,0.1263644679,0.0007409094143,3707.521536,21.9206701,0
臺北市大安區福住里13鄰永康街53之1號,25.029916,121.529576,大安區,7146045.27,1,1136.14,1851,139.95,0.03380266359,0.01994407395,0.2199770288,0.5634718908,1,-0.5239947346,-0.7016062578,-0.6546866293,1.399568561,-0.5577902805,1,1,1,1,1,1,1,1,1,1,0.0001483003346,8,3,0.1368618832,0.0003044148518,3860.64034,22.68600766,1
臺北市中山區行政里1鄰農安街227巷36號,25.066475,121.533851,中山區,7723327.91,4,1368.209961,1440,1361.68,0.323853335,0.2265273006,0.4352952479,0.4619361244,1,-0.4690027747,0.570808739,-0.5422323236,0.212057138,2.715683806,1,1,1,1,0,0,1,1,0,1,0.03193396534,6,1,0.1971351767,0.0003207889753,5363.42216,17.73615688,0
臺北市士林區福德里13鄰福德路78號,25.092637,121.521636,士林區,28233710.05,2,6236.82,1480,457.06,0.2037857723,0.1568488111,0.5489219646,0.3432012474,1,1.484816779,-0.2774679255,1.816953498,0.3276300259,0.2918666549,1,1,1,1,0,1,1,1,0,1,0.01754549801,7,2,0.303185516,0.0002318927347,19076.83111,25.81814465,0
臺北市文山區興業里11鄰興隆路二段220巷63號,24.999459,121.551253,文山區,15745617.73,1,3150.9,1350,943.56,0.1512893543,0.04442724643,0.725637609,1.812861682,1,0.2952007692,-0.7016062578,0.3216070538,-0.04798185974,1.595383097,1,1,1,1,1,1,0,0,0,0,0.004877278439,6,2,0.4606771049,0.001342860505,11663.42054,24.27161609,0
臺北市大安區學府里12鄰基隆路三段153號,25.015795,121.542961,大安區,7146045.27,1,1136.14,1851,139.95,0.2071807068,0.4955434046,0.6778550487,1.282938898,1,-0.5239947346,-0.7016062578,-0.6546866293,1.399568561,-0.5577902805,1,0,1,1,0,0,0,1,1,1,0.06959336655,4,0,0.6902895801,0.0006931058335,3860.64034,22.68600766,0
臺北市文山區景東里15鄰景華街104巷1號,24.995194,121.546328,文山區,15745617.73,1,3150.9,1350,943.56,0.1638262818,0.1522190848,0.6587891769,1.016779938,1,0.2952007692,-0.7016062578,0.3216070538,-0.04798185974,1.595383097,1,1,1,1,1,1,0,1,0,0,0.01642854632,7,2,0.4874172718,0.0007531703246,11663.42054,24.27161609,0
臺北市大同區雙連里27鄰重慶北路二段105號,25.057183,121.51392,大同區,2253601.36,6,568.15,868,0,0.1051374479,0.1378531333,0.4231746408,0.3869968558,1,-0.990049073,1.419085404,-0.9299179467,-1.440635159,-0.932768957,1,1,1,1,1,1,1,1,0,0,0.006133292925,8,3,0.0951664603,0.0004458489123,2596.314931,20.97042557,1
臺北市大安區龍門里3鄰建國南路二段332號,25.023301,121.537233,大安區,7146045.27,1,1136.14,1851,139.95,0.1816202926,0.1170416918,0.724116547,0.5420799459,1,-0.5239947346,-0.7016062578,-0.6546866293,1.399568561,-0.5577902805,1,1,1,1,1,1,0,1,1,1,0.01539265138,7,2,0.5113892657,0.0002928578854,3860.64034,22.68600766,0
臺北市南港區聯成里19鄰忠孝東路六段326號,25.049482,121.590785,南港區,9032463.69,0,2184.24,738,0,0.3568690378,0.3013306094,0.2646671104,1.977196953,1,-0.3442944651,-1.12574459,-0.1468080685,-1.816247044,-0.932768957,0,1,1,1,0,0,1,0,0,0,0.02846112716,4,1,0.9228667576,0.002679128662,12239.11069,23.70535894,0
臺北市信義區永吉里17鄰永吉路527號,25.045535,121.5804,信義區,5953425.42,1,1120.77,1012,282.6,0.09903144909,0.1075376361,0.1771748861,0.5920700197,1,-0.6376037335,-0.7016062578,-0.6621344811,-1.024572762,-0.1755772887,1,1,1,1,1,1,1,1,0,0,0.001886843074,8,3,0.1918719857,0.0005850494266,5882.831443,22.33069826,1
臺北市大安區德安里5鄰四維路76巷1號,25.034443,121.547912,大安區,7146045.27,1,1136.14,1851,139.95,0.1292149872,0.04062202912,0.4884817599,1.934614783,1,-0.5239947346,-0.7016062578,-0.6546866293,1.399568561,-0.5577902805,1,1,1,1,1,1,1,0,1,1,0.002564028533,7,3,0.3291593881,0.001045172762,3860.64034,22.68600766,1
臺北市大安區福住里1鄰新生南路二段32號,25.0312,121.533123,大安區,7146045.27,1,1136.14,1851,139.95,0,0.3104412062,0.2791728823,0.3746017241,1,-0.5239947346,-0.7016062578,-0.6546866293,1.399568561,-0.5577902805,1,1,1,1,1,0,1,1,1,1,0,7,2,0.2948070443,0.0002023780249,3860.64034,22.68600766,0
臺北市信義區六合里14鄰信義路五段150巷507號,25.02147,121.573586,信義區,5953425.42,1,1120.77,1012,282.6,0.3411912854,0.2906860622,1.026150981,1.567390968,1,-0.6376037335,-0.7016062578,-0.6621344811,-1.024572762,-0.1755772887,0,1,1,1,0,0,0,0,0,0,0.1017731938,3,0,0.8290141643,0.001548805305,5882.831443,22.33069826,0
臺北市松山區莊敬里28鄰撫遠街453號,25.070785,121.564429,松山區,4973385.2,0,928.78,1129,97.8,0.4539469983,0.4145468724,0.9194283015,2.80910024,1,-0.7309623912,-1.12574459,-0.7551672116,-0.6865220653,-0.6707259805,0,0,1,0,0,0,0,0,0,0,0.1730201402,1,0,1.787922172,0.002488131302,4405.124181,22.14221702,0
臺北市中正區新營里13鄰潮州街1之1號,25.030111,121.520598,中正區,4852832.46,4,760.71,1869,368.2,0.2417952138,0.2353973119,0.3039340705,0.4780106165,1,-0.7424462485,0.570808739,-0.8366090108,1.451576361,0.05377730018,1,1,1,1,0,0,1,1,1,1,0.01729930221,6,1,0.1562253192,0.0002557574192,2596.486067,21.36763512,0
臺北市中正區黎明里3鄰市民大道一段100號,25.048445,121.51748,中正區,4852832.46,4,760.71,1869,368.2,0.3121630922,0.1495980675,0.09169204563,0.2312770544,1,-0.7424462485,0.570808739,-0.8366090108,1.451576361,0.05377730018,1,1,1,1,0,1,1,1,1,1,0.004281926411,7,2,0.1106906411,0.0001237437423,2596.486067,21.36763512,0
臺北市文山區樟文里1鄰忠順街一段24號,24.98395,121.559009,文山區,15745617.73,1,3150.9,1350,943.56,0.102875598,0.06272506794,1.039917555,2.478157791,1,0.2952007692,-0.7016062578,0.3216070538,-0.04798185974,1.595383097,1,1,1,0,1,1,0,0,0,0,0.006710462025,5,2,0.6027591107,0.001835672437,11663.42054,24.27161609,0
臺北市文山區樟樹里1鄰木新路三段202號,24.981646,121.560022,文山區,15745617.73,1,3150.9,1350,943.56,0.1509317024,0.1347960329,1.286750624,2.72497515,1,0.2952007692,-0.7016062578,0.3216070538,-0.04798185974,1.595383097,1,1,0,0,1,1,0,0,0,0,0.02617893464,4,2,0.7862391795,0.002018500111,11663.42054,24.27161609,1
臺北市士林區蘭雅里10鄰德行東路109巷109號,25.11134,121.528684,士林區,28233710.05,2,6236.82,1480,457.06,0.05820342347,0.1294904051,1.142193072,2.197094244,1,1.484816779,-0.2774679255,1.816953498,0.3276300259,0.2918666549,1,1,1,1,1,1,0,0,0,1,0.008608463485,6,2,0.4432956337,0.001484523138,19076.83111,25.81814465,0
臺北市中正區梅花里14鄰市民大道三段2號,25.045632,121.531021,中正區,4852832.46,4,760.71,1869,368.2,0.2210619188,0.1662127485,0.2555383545,0.5950655627,1,-0.7424462485,0.570808739,-0.8366090108,1.451576361,0.05377730018,1,1,1,1,0,1,1,1,1,1,0.009389324748,7,2,0.1285626044,0.0003183871389,2596.486067,21.36763512,0
臺北市士林區義信里1鄰中山北路五段65號,25.083562,121.525163,士林區,28233710.05,2,6236.82,1480,457.06,0.4169078941,0.2508140179,0.04518109171,0.9764883809,1,1.484816779,-0.2774679255,1.816953498,0.3276300259,0.2918666549,0,1,1,1,0,0,1,1,0,1,0.004724421579,5,1,0.2376343346,0.0006597894466,19076.83111,25.81814465,0
臺北市信義區松友里6鄰信義路六段72號,25.035031,121.5768,信義區,5953425.42,1,1120.77,1012,282.6,0.1371917789,0.137660076,0.3552677649,0.6488540393,1,-0.6376037335,-0.7016062578,-0.6621344811,-1.024572762,-0.1755772887,1,1,1,1,1,1,1,1,0,0,0.00670952686,8,3,0.3150598099,0.0006411601179,5882.831443,22.33069826,1
臺北市萬華區忠貞里16鄰青年路106巷28號,25.02287,121.501926,萬華區,3740889.23,9,885.22,1009,0,0.2933612261,0.1784135064,0.7632857222,0.8715353907,1,-0.8483699905,2.6915004,-0.7762751118,-1.033240729,-0.932768957,1,1,1,1,0,1,0,1,0,0,0.03995007319,6,1,0.1235060455,0.0008637615369,3707.521536,21.9206701,0
臺北市文山區興邦里7鄰興隆路二段255號,25.002006,121.55171,文山區,15745617.73,1,3150.9,1350,943.56,0.0467765747,0.1546472692,0.771927576,2.011943896,1,0.2952007692,-0.7016062578,0.3216070538,-0.04798185974,1.595383097,1,1,1,1,1,1,0,0,0,0,0.00558402338,6,2,0.48667571,0.001490328812,11663.42054,24.27161609,0
臺北市萬華區青山里1鄰貴陽街二段260號,25.039981,121.498105,萬華區,3740889.23,9,885.22,1009,0,0.2203602234,0.05791929429,0.4198424811,0.03238407384,1,-0.8483699905,2.6915004,-0.7762751118,-1.033240729,-0.932768957,1,1,1,1,0,1,1,1,0,0,0.005358495193,7,2,0.06981219988,0.00003209521689,3707.521536,21.9206701,0
臺北市大安區龍門里6鄰新生南路二段1號,25.030152,121.535351,大安區,7146045.27,1,1136.14,1851,139.95,0.2163499972,0.2378750593,0.1949944039,0.3123144342,1,-0.5239947346,-0.7016062578,-0.6546866293,1.399568561,-0.5577902805,1,1,1,1,0,0,1,1,1,1,0.01003524434,6,1,0.3246097302,0.0001687274091,3860.64034,22.68600766,0
臺北市中正區文祥里11鄰金山南路一段100號,25.035723,121.527404,中正區,4852832.46,4,760.71,1869,368.2,0.2007404744,0.198415915,0.1053266647,0.4672895114,1,-0.7424462485,0.570808739,-0.8366090108,1.451576361,0.05377730018,1,1,1,1,0,1,1,1,1,1,0.004195172102,7,2,0.1008966108,0.0002500211404,2596.486067,21.36763512,0
臺北市大同區揚雅里6鄰大龍街130號,25.067108,121.515898,大同區,2253601.36,6,568.15,868,0,0.11303576,0.06057236646,0.4692891941,0.471381002,1,-0.990049073,1.419085404,-0.9299179467,-1.440635159,-0.932768957,1,1,1,1,1,1,1,1,0,0,0.003213149659,8,3,0.09184247437,0.0005430656705,2596.314931,20.97042557,1
臺北市信義區安康里4鄰松德路40號,25.038958,121.57669,信義區,5953425.42,1,1120.77,1012,282.6,0.2408042684,0.22166244,0.1143060174,0.4078916536,1,-0.6376037335,-0.7016062578,-0.6621344811,-1.024572762,-0.1755772887,1,1,1,1,0,0,1,1,0,0,0.006101342204,6,1,0.2883863629,0.0004030549937,5882.831443,22.33069826,0
臺北市士林區義信里1鄰中山北路五段65號,25.083562,121.525163,士林區,28233710.05,2,6236.82,1480,457.06,0.4169078941,0.2508140179,0.04518109171,0.9764883809,1,1.484816779,-0.2774679255,1.816953498,0.3276300259,0.2918666549,0,1,1,1,0,0,1,1,0,1,0.004724421579,5,1,0.2376343346,0.0006597894466,19076.83111,25.81814465,0
臺北市大安區龍圖里8鄰信義路三段202號,25.03318,121.543324,大安區,7146045.27,1,1136.14,1851,139.95,0.07273951786,0.1449688157,0.06243992549,1.375389435,1,-0.5239947346,-0.7016062578,-0.6546866293,1.399568561,-0.5577902805,1,1,1,1,1,1,1,0,1,1,0.0006584266267,7,3,0.1400741295,0.0007430520986,3860.64034,22.68600766,1
臺北市內湖區港墘里1鄰內湖路一段608號,25.078544,121.578434,內湖區,11254761.59,1,3157.87,1370,0,0.177996289,0.1374645005,0.4133360413,2.296069717,1,-0.1325983074,-0.7016062578,0.3249845116,0.009804584201,-0.932768957,1,1,1,1,1,1,1,0,0,1,0.01011357692,7,3,0.3643984154,0.001675963297,8215.154445,24.29395488,1
臺北市士林區名山里22鄰中山北路五段858號,25.102298,121.526486,士林區,28233710.05,2,6236.82,1480,457.06,0.1879900868,0.1480736552,0.4428914962,1.426649467,1,1.484816779,-0.2774679255,1.816953498,0.3276300259,0.2918666549,1,1,1,1,1,1,1,0,0,1,0.01232849568,7,3,0.2596517461,0.0009639523428,19076.83111,25.81814465,1
臺北市中正區黎明里8鄰武昌街一段8號,25.044004,121.513718,中正區,4852832.46,4,760.71,1869,368.2,0.3920350123,0.1642868225,0.3526662699,0.9079151904,1,-0.7424462485,0.570808739,-0.8366090108,1.451576361,0.05377730018,0,1,1,1,0,1,1,1,1,1,0.02271388954,6,2,0.1817976209,0.0004857759178,2596.486067,21.36763512,1
臺北市文山區萬興里9鄰指南路二段128號,24.985627,121.57978,文山區,15745617.73,1,3150.9,1350,943.56,0.07143864707,0.1182620481,0.7504097851,3.858118802,1,0.2952007692,-0.7016062578,0.3216070538,-0.04798185974,1.595383097,1,1,1,0,1,1,0,0,0,0,0.006339822597,5,2,0.4700552401,0.002857865779,11663.42054,24.27161609,0
臺北市文山區木柵里7鄰木柵路三段85巷14弄14之1號,24.989688,121.567058,文山區,15745617.73,1,3150.9,1350,943.56,0.009306819987,0.2881199449,0.6680383158,3.039412894,1,0.2952007692,-0.7016062578,0.3216070538,-0.04798185974,1.595383097,1,1,1,0,1,0,0,0,0,0,0.001791331692,4,1,0.4827325404,0.002251416959,11663.42054,24.27161609,0
臺北市松山區介壽里18鄰民生東路五段36巷6弄6之1號,25.057561,121.56004,松山區,4973385.2,0,928.78,1129,97.8,0.09532721913,0.165610298,0.7068037553,2.527236368,1,-0.7309623912,-1.12574459,-0.7551672116,-0.6865220653,-0.6707259805,1,1,1,0,1,1,0,0,0,0,0.01115843045,5,2,0.9677412724,0.002238473311,4405.124181,22.14221702,0
臺北市北投區吉利里3鄰致遠二路149號,25.117477,121.512927,北投區,32634930.67,3,5682.16,1300,379.25,0.09271793788,0.1776743795,0.3932026415,1.130531374,1,1.904077174,0.1466704068,1.548181508,-0.1924479696,0.0833844054,1,1,1,1,1,1,1,1,0,0,0.006477463853,8,3,0.1658987397,0.0008696395188,25103.79282,25.87690477,1
臺北市大同區建泰里3鄰南京西路18巷18之1號,25.051241,121.520028,大同區,2253601.36,6,568.15,868,0,0.08775190812,0.134697778,0.09879882987,0.214719592,1,-0.990049073,1.419085404,-0.9299179467,-1.440635159,-0.932768957,1,1,1,1,1,1,1,1,0,0,0.001167800888,8,3,0.04589264514,0.0002473728019,2596.314931,20.97042557,1
臺北市大安區芳和里3鄰樂業街94巷27號,25.020605,121.550563,大安區,7146045.27,1,1136.14,1851,139.95,0.1393427607,0.1986344958,0.4307926296,2.181763206,1,-0.5239947346,-0.7016062578,-0.6546866293,1.399568561,-0.5577902805,1,1,1,1,1,1,1,0,1,1,0.0119235986,7,3,0.384384943,0.001178694331,3860.64034,22.68600766,1
臺北市北投區泉源里16鄰東昇路201之1號,25.160367,121.531848,北投區,32634930.67,3,5682.16,1300,379.25,1.009466321,0.8753005951,4.346070868,4.804616714,1,1.904077174,0.1466704068,1.548181508,-0.1924479696,0.0833844054,0,0,0,0,0,0,0,0,0,0,3.840129421,0,0,1.557709446,0.003695859011,25103.79282,25.87690477,1
臺北市大安區學府里1鄰羅斯福路四段131之1號,25.01057,121.537449,大安區,7146045.27,1,1136.14,1851,139.95,0.09551182514,0.2635150683,0.5447631502,0.8801512588,1,-0.5239947346,-0.7016062578,-0.6546866293,1.399568561,-0.5577902805,1,1,1,1,1,0,1,1,1,1,0.01371103757,7,2,0.4518950218,0.0004755004099,3860.64034,22.68600766,0
臺北市北投區立農里15鄰立農街一段279巷2弄2號,25.119631,121.50619,北投區,32634930.67,3,5682.16,1300,379.25,0.1074632684,0.2265310711,0.1044590951,0.2559311789,1,1.904077174,0.1466704068,1.548181508,-0.1924479696,0.0833844054,1,1,1,1,1,0,1,1,0,0,0.002542928112,7,2,0.1096133587,0.0001968701376,25103.79282,25.87690477,0
臺北市信義區廣居里26鄰忠孝東路五段480號,25.040659,121.577565,信義區,5953425.42,1,1120.77,1012,282.6,0.06842555868,0.1748142054,0.1125585953,0.4061493097,1,-0.6376037335,-0.7016062578,-0.6621344811,-1.024572762,-0.1755772887,1,1,1,1,1,1,1,1,0,0,0.001346398866,8,3,0.1778991797,0.0004013333099,5882.831443,22.33069826,1
臺北市中正區幸福里4鄰忠孝東路一段84巷2號,25.044239,121.524061,中正區,4852832.46,4,760.71,1869,368.2,0.08385199639,0.4041130188,0.024795982,0.6235888782,1,-0.7424462485,0.570808739,-0.8366090108,1.451576361,0.05377730018,1,0,1,1,1,0,1,1,1,1,0.0008402287955,6,2,0.1025521994,0.00033364841,2596.486067,21.36763512,1
臺北市大安區光明里9鄰杭州南路二段9巷9號,25.034106,121.524461,大安區,7146045.27,1,1136.14,1851,139.95,0.07266821444,0.2157954418,0.3518874043,0.8886783161,1,-0.5239947346,-0.7016062578,-0.6546866293,1.399568561,-0.5577902805,1,1,1,1,1,0,1,1,1,1,0.005518111578,7,2,0.3201755303,0.00048010714,3860.64034,22.68600766,0
臺北市大安區錦安里4鄰金山南路二段185巷35號,25.028241,121.528127,大安區,7146045.27,1,1136.14,1851,139.95,0.1658940467,0.03521435635,0.3464869676,0.7581632273,1,-0.5239947346,-0.7016062578,-0.6546866293,1.399568561,-0.5577902805,1,1,1,1,1,1,1,1,1,1,0.002024125612,8,3,0.2737976853,0.0004095965571,3860.64034,22.68600766,1
臺北市北投區關渡里12鄰知行路360號,25.11764,121.464039,北投區,32634930.67,3,5682.16,1300,379.25,0.3079480269,0.1601602065,0.7684838851,0.7511129836,1,1.904077174,0.1466704068,1.548181508,-0.1924479696,0.0833844054,1,1,1,1,0,1,0,1,0,0,0.03790240875,6,1,0.3091480296,0.0005777792181,25103.79282,25.87690477,0
臺北市士林區社園里14鄰延平北路六段200號,25.089656,121.505538,士林區,28233710.05,2,6236.82,1480,457.06,0.05739604302,0.07194898391,1.852586388,1.604768283,1,1.484816779,-0.2774679255,1.816953498,0.3276300259,0.2918666549,1,1,0,1,1,1,0,0,0,1,0.007650416618,5,2,0.6606438048,0.001084302894,19076.83111,25.81814465,1
臺北市內湖區樂康里4鄰康樂街136巷29弄29號,25.072865,121.617745,內湖區,11254761.59,1,3157.87,1370,0,0.2212827042,0.1706029619,0.9409831643,0.2286109924,1,-0.1325983074,-0.7016062578,0.3249845116,0.009804584201,-0.932768957,1,1,1,1,0,1,0,1,0,1,0.03552351157,6,1,0.6664344152,0.0001668693375,8215.154445,24.29395488,0
臺北市信義區西村里8鄰松智路1號,25.038775,121.566081,信義區,5953425.42,1,1120.77,1012,282.6,0.3255478194,0.08097089829,0.2224960425,1.394274357,1,-0.6376037335,-0.7016062578,-0.6621344811,-1.024572762,-0.1755772887,1,1,1,1,0,1,1,0,0,0,0.005864973293,6,2,0.3145073801,0.001377741459,5882.831443,22.33069826,0
臺北市文山區明義里5鄰木柵路二段202號,24.98875,121.563714,文山區,15745617.73,1,3150.9,1350,943.56,0.1546818955,0.1315354452,1.094554732,2.7220716,1,0.2952007692,-0.7016062578,0.3216070538,-0.04798185974,1.595383097,1,1,1,0,1,1,0,0,0,0,0.02226997694,5,2,0.6903860363,0.002016349333,11663.42054,24.27161609,0
臺北市北投區福興里12鄰自強街31巷31號,25.111291,121.512493,北投區,32634930.67,3,5682.16,1300,379.25,0.2972475512,0.2749907088,0.5139146949,1.441897515,1,1.904077174,0.1466704068,1.548181508,-0.1924479696,0.0833844054,1,1,1,1,0,0,1,0,0,0,0.04200754895,5,1,0.2715382387,0.001109151934,25103.79282,25.87690477,0
臺北市北投區福興里12鄰自強街31巷31號,25.111291,121.512493,北投區,32634930.67,3,5682.16,1300,379.25,0.2972475512,0.2749907088,0.5139146949,1.441897515,1,1.904077174,0.1466704068,1.548181508,-0.1924479696,0.0833844054,1,1,1,1,0,0,1,0,0,0,0.04200754895,5,1,0.2715382387,0.001109151934,25103.79282,25.87690477,0
臺北市南港區九如里6鄰研究院路二段230之1號,25.036135,121.617113,南港區,9032463.69,0,2184.24,738,0,0.06697955553,0.101686516,1.121820765,2.297346958,1,-0.3442944651,-1.12574459,-0.1468080685,-1.816247044,-0.932768957,1,1,1,1,1,1,0,0,0,0,0.007640628844,6,2,1.290486836,0.003112936257,12239.11069,23.70535894,0
臺北市松山區安平里15鄰南京東路五段291巷47弄1號,25.053723,121.566298,松山區,4973385.2,0,928.78,1129,97.8,0.1226527147,0.2418681741,0.3009478961,1.607822574,1,-0.7309623912,-1.12574459,-0.7551672116,-0.6865220653,-0.6707259805,1,1,1,1,1,0,1,0,0,0,0.008927856532,6,2,0.6654687849,0.001424112112,4405.124181,22.14221702,0
臺北市中山區圓山里8鄰新生北路三段168號,25.071967,121.526224,中山區,7723327.91,4,1368.209961,1440,1361.68,0.5367100646,0.3317120847,0.5451825388,0.257314963,1,-0.4690027747,0.570808739,-0.5422323236,0.212057138,2.715683806,0,1,1,1,0,0,1,1,0,1,0.09706059983,5,1,0.2827209376,0.0001786909465,5363.42216,17.73615688,0
臺北市中山區圓山里8鄰新生北路三段168號,25.071967,121.526224,中山區,7723327.91,4,1368.209961,1440,1361.68,0.5367100646,0.3317120847,0.5451825388,0.257314963,1,-0.4690027747,0.570808739,-0.5422323236,0.212057138,2.715683806,0,1,1,1,0,0,1,1,0,1,0.09706059983,5,1,0.2827209376,0.0001786909465,5363.42216,17.73615688,0
臺北市北投區榮華里19鄰東華街一段48巷8之1號,25.108687,121.5203,北投區,32634930.67,3,5682.16,1300,379.25,0.1423682108,0.1587246595,0.1631108957,1.110011302,1,1.904077174,0.1466704068,1.548181508,-0.1924479696,0.0833844054,1,1,1,1,1,1,1,1,0,0,0.003685873313,8,3,0.1160509415,0.0008538548478,25103.79282,25.87690477,1
臺北市中正區東門里16鄰信義路一段21之3號,25.036451,121.523261,中正區,4852832.46,4,760.71,1869,368.2,0.1971848668,0.485640641,0.5084470097,0.9060319371,1,-0.7424462485,0.570808739,-0.8366090108,1.451576361,0.05377730018,1,0,1,1,0,0,1,1,1,1,0.04868938654,5,1,0.2382545035,0.0004847682917,2596.486067,21.36763512,0
臺北市文山區景東里26鄰景華街82巷15號,24.993898,121.545395,文山區,15745617.73,1,3150.9,1350,943.56,0.2104327129,0.2511253978,0.4795909174,0.8375769538,1,0.2952007692,-0.7016062578,0.3216070538,-0.04798185974,1.595383097,1,1,1,1,0,0,1,1,0,0,0.02534398143,6,1,0.470574514,0.0006204273732,11663.42054,24.27161609,0
臺北市大安區敦安里6鄰仁愛路四段130號,25.0375,121.550681,大安區,7146045.27,1,1136.14,1851,139.95,0,0.1186205236,0.2367551881,2.22521569,1,-0.5239947346,-0.7016062578,-0.6546866293,1.399568561,-0.5577902805,1,1,1,1,1,1,1,0,1,1,0,7,3,0.1776878558,0.001202169471,3860.64034,22.68600766,1
臺北市大安區龍泉里3鄰師大路71號,25.023681,121.528589,大安區,7146045.27,1,1136.14,1851,139.95,0.101295643,0.07734515494,0.2278382636,0.7847445165,1,-0.5239947346,-0.7016062578,-0.6546866293,1.399568561,-0.5577902805,1,1,1,1,1,1,1,1,1,1,0.001785050642,8,3,0.2032395308,0.0004239570591,3860.64034,22.68600766,1
臺北市內湖區南湖里1鄰民權東路六段296巷123號,25.069371,121.609491,內湖區,11254761.59,1,3157.87,1370,0,0.1015765315,0.03769897041,0.3077112607,1.20708257,1,-0.1325983074,-0.7016062578,0.3249845116,0.009804584201,-0.932768957,1,1,1,1,1,1,1,1,0,1,0.001178328163,8,3,0.2234933813,0.0008810821682,8215.154445,24.29395488,1
臺北市中山區大佳里1鄰松江路609號,25.071114,121.533874,中山區,7723327.91,4,1368.209961,1440,1361.68,0.3586416451,0.4679158724,0.7077205962,0.729244695,1,-0.4690027747,0.570808739,-0.5422323236,0.212057138,2.715683806,0,0,1,1,0,0,0,1,0,1,0.1187655078,3,0,0.3068556227,0.0005064199271,5363.42216,17.73615688,0
臺北市南港區合成里16鄰忠孝東路六段129號,25.048532,121.585323,南港區,9032463.69,0,2184.24,738,0,0.09307216527,0.2262814485,0.4198296019,1.314266301,1,-0.3442944651,-1.12574459,-0.1468080685,-1.816247044,-0.932768957,1,1,1,1,1,0,1,1,0,0,0.008841823168,7,2,0.7391832157,0.001780848647,12239.11069,23.70535894,0
臺北市大同區國順里3鄰環河北路二段115號,25.06658,121.509082,大同區,2253601.36,6,568.15,868,0,0.3968067063,0.1257011536,0.4605162151,0.2542498783,1,-0.990049073,1.419085404,-0.9299179467,-1.440635159,-0.932768957,0,1,1,1,0,1,1,1,0,0,0.02297011626,6,2,0.1404320107,0.0002929146063,2596.314931,20.97042557,1
臺北市大安區黎和里6鄰和平東路三段662號,25.01247,121.563181,大安區,7146045.27,1,1136.14,1851,139.95,0.6736625156,0.4730967449,0.8630989732,3.248343805,1,-0.5239947346,-0.7016062578,-0.6546866293,1.399568561,-0.5577902805,0,0,1,0,0,0,0,0,1,1,0.2750761533,1,0,1.004929117,0.001754912915,3860.64034,22.68600766,0
臺北市南港區合成里12鄰忠孝東路六段1號,25.045632,121.582714,南港區,9032463.69,0,2184.24,738,0,0.2606586655,0.05912961812,0.03158908435,0.8551115973,1,-0.3442944651,-1.12574459,-0.1468080685,-1.816247044,-0.932768957,1,1,1,1,0,1,1,1,0,0,0.0004868714174,7,2,0.351377368,0.001158687801,12239.11069,23.70535894,0
臺北市信義區興雅里14鄰永吉路30巷150號,25.042617,121.568657,信義區,5953425.42,1,1120.77,1012,282.6,0.2381782597,0.1080964828,0.2430200501,0.884045834,1,-0.6376037335,-0.7016062578,-0.6621344811,-1.024572762,-0.1755772887,1,1,1,1,0,1,1,1,0,0,0.006256850627,7,2,0.2946473963,0.0008735630771,5882.831443,22.33069826,0
臺北市信義區興雅里2鄰松高路19號,25.039359,121.566667,信義區,5953425.42,1,1120.77,1012,282.6,0.3567284471,0.1471558465,0.1435164096,1.295093941,1,-0.6376037335,-0.7016062578,-0.6621344811,-1.024572762,-0.1755772887,0,1,1,1,0,1,1,1,0,0,0.007533847511,6,2,0.3237003516,0.001279737096,5882.831443,22.33069826,1
臺北市北投區吉利里2鄰西安街二段85號,25.117398,121.513177,北投區,32634930.67,3,5682.16,1300,379.25,0.06950370859,0.1544599841,0.3608032054,1.162933235,1,1.904077174,0.1466704068,1.548181508,-0.1924479696,0.0833844054,1,1,1,1,1,1,1,1,0,0,0.003873417866,8,3,0.1461917245,0.0008945640271,25103.79282,25.87690477,1
臺北市大同區玉泉里9鄰鄭州路145號,25.050692,121.508887,大同區,2253601.36,6,568.15,868,0,0.1004119831,0.1816010789,0.1925889477,0.3221736632,1,-0.990049073,1.419085404,-0.9299179467,-1.440635159,-0.932768957,1,1,1,1,1,1,1,1,0,0,0.003511844916,8,3,0.06780028711,0.0003711678148,2596.314931,20.97042557,1
臺北市中正區文盛里9鄰羅斯福路四段22號,25.01564,121.533115,中正區,4852832.46,4,760.71,1869,368.2,0.1336145379,0.1415619771,0.08512549353,0.1787401496,1,-0.7424462485,0.570808739,-0.8366090108,1.451576361,0.05377730018,1,1,1,1,1,1,1,1,1,1,0.00161012642,8,3,0.0720604017,0.00009563410896,2596.486067,21.36763512,1
臺北市松山區東光里4鄰南京東路五段1號,25.05177,121.557434,松山區,4973385.2,0,928.78,1129,97.8,0.09123692694,0.2586009795,0.5182766657,2.479935356,1,-0.7309623912,-1.12574459,-0.7551672116,-0.6865220653,-0.6707259805,1,1,1,0,1,0,1,0,0,0,0.01222819823,5,2,0.8681145722,0.002196576931,4405.124181,22.14221702,0
臺北市中正區三愛里15鄰信義路二段287號,25.033806,121.5324,中正區,4852832.46,4,760.71,1869,368.2,0.0781015513,0.1459207398,0.233704648,0.2462295014,1,-0.7424462485,0.570808739,-0.8366090108,1.451576361,0.05377730018,1,1,1,1,1,1,1,1,1,1,0.002663446838,8,3,0.09154538782,0.0001317439815,2596.486067,21.36763512,1
臺北市文山區樟文里21鄰辛亥路七段69巷36號,24.982336,121.555,文山區,15745617.73,1,3150.9,1350,943.56,0.09317150069,0.1944786481,1.296715334,2.126145636,1,0.2952007692,-0.7016062578,0.3216070538,-0.04798185974,1.595383097,1,1,0,1,1,1,0,0,0,0,0.02349631003,5,2,0.7921827412,0.001574922693,11663.42054,24.27161609,1
臺北市信義區興雅里20鄰忠孝東路五段101號,25.0413,121.567415,信義區,5953425.42,1,1120.77,1012,282.6,0.2055571147,0.09918778605,0.02818225312,1.098877581,1,-0.6376037335,-0.7016062578,-0.6621344811,-1.024572762,-0.1755772887,1,1,1,1,0,1,1,1,0,0,0.0005746010572,7,2,0.1664635769,0.001085847412,5882.831443,22.33069826,0
臺北市中山區集英里21鄰天祥路82號,25.064029,121.520517,中山區,7723327.91,4,1368.209961,1440,1361.68,0.3074702456,0.1718289241,0.08351686023,0.8332190804,1,-0.4690027747,0.570808739,-0.5422323236,0.212057138,2.715683806,1,1,1,1,0,1,1,1,0,1,0.004412386269,7,2,0.112563206,0.0005786243614,5363.42216,17.73615688,0
臺北市大安區學府里1鄰羅斯福路四段131之1號,25.01057,121.537449,大安區,7146045.27,1,1136.14,1851,139.95,0.09551182514,0.2635150683,0.5447631502,0.8801512588,1,-0.5239947346,-0.7016062578,-0.6546866293,1.399568561,-0.5577902805,1,1,1,1,1,0,1,1,1,1,0.01371103757,7,2,0.4518950218,0.0004755004099,3860.64034,22.68600766,0
臺北市信義區永春里12鄰忠孝東路五段485號,25.041122,121.5781,信義區,5953425.42,1,1120.77,1012,282.6,0.007378013253,0.1422754695,0.1737754041,0.438692212,1,-0.6376037335,-0.7016062578,-0.6621344811,-1.024572762,-0.1755772887,1,1,1,1,1,1,1,1,0,0,0.0001824138314,8,3,0.1617144434,0.000433490328,5882.831443,22.33069826,1
臺北市中山區恆安里1鄰中山北路二段185號,25.063855,121.522597,中山區,7723327.91,4,1368.209961,1440,1361.68,0.2165799506,0.1096206038,0.2542610781,0.6119846417,1,-0.4690027747,0.570808739,-0.5422323236,0.212057138,2.715683806,1,1,1,1,0,1,1,1,0,1,0.006036571159,7,2,0.1160923265,0.0004249893345,5363.42216,17.73615688,0
臺北市大安區新龍里4鄰建國南路二段167號,25.02831,121.538084,大安區,7146045.27,1,1136.14,1851,139.95,0.1423916151,0.2678802049,0.5273614175,0.5091518687,1,-0.5239947346,-0.7016062578,-0.6546866293,1.399568561,-0.5577902805,1,1,1,1,1,0,1,1,1,1,0.02011561855,7,2,0.4688166188,0.0002750685406,3860.64034,22.68600766,0
臺北市萬華區凌霄里9鄰中華路二段504巷63號,25.024978,121.508092,萬華區,3740889.23,9,885.22,1009,0,0.089984006,0.2551738895,0.8225818761,1.097761663,1,-0.8483699905,2.6915004,-0.7762751118,-1.033240729,-0.932768957,1,1,1,1,1,0,0,1,0,0,0.01888777034,6,1,0.1167739772,0.001087969934,3707.521536,21.9206701,0
臺北市文山區萬隆里21鄰萬隆街97號,25.000071,121.537222,文山區,15745617.73,1,3150.9,1350,943.56,0.1329146867,0.1243224521,0.2615987608,0.8833290494,1,0.2952007692,-0.7016062578,0.3216070538,-0.04798185974,1.595383097,1,1,1,1,1,1,1,1,0,0,0.004322731113,8,3,0.2594179498,0.0006543178144,11663.42054,24.27161609,1
臺北市松山區精忠里7鄰光復北路266之1號,25.059059,121.554343,松山區,4973385.2,0,928.78,1129,97.8,0.2501329201,0.1011779007,0.4587183233,2.249010837,1,-0.7309623912,-1.12574459,-0.7551672116,-0.6865220653,-0.6707259805,1,1,1,1,0,1,1,0,0,0,0.01160920835,6,2,0.8100291441,0.001992037942,4405.124181,22.14221702,0
臺北市北投區文林里1鄰文林北路296號,25.109911,121.512519,北投區,32634930.67,3,5682.16,1300,379.25,0.3745862578,0.3548301224,0.5912535247,1.525020548,1,1.904077174,0.1466704068,1.548181508,-0.1924479696,0.0833844054,0,1,1,1,0,0,0,0,0,0,0.07858615934,3,0,0.3301674762,0.001173092729,25103.79282,25.87690477,0
臺北市北投區文林里1鄰文林北路296號,25.109911,121.512519,北投區,32634930.67,3,5682.16,1300,379.25,0.3745862578,0.3548301224,0.5912535247,1.525020548,1,1.904077174,0.1466704068,1.548181508,-0.1924479696,0.0833844054,0,1,1,1,0,0,0,0,0,0,0.07858615934,3,0,0.3301674762,0.001173092729,25103.79282,25.87690477,0
臺北市松山區新益里16鄰新東街60巷18號,25.062035,121.566141,松山區,4973385.2,0,928.78,1129,97.8,0.1648335694,0.1295692929,0.7674659972,2.109264925,1,-0.7309623912,-1.12574459,-0.7551672116,-0.6865220653,-0.6707259805,1,1,1,1,1,1,0,0,0,0,0.01639105452,6,2,1.061868859,0.001868259455,4405.124181,22.14221702,0
臺北市北投區中央里18鄰大興街24巷6弄6號,25.129127,121.49852,北投區,32634930.67,3,5682.16,1300,379.25,0.443137296,0.1323888688,0.1921195445,0.9571451386,1,1.904077174,0.1466704068,1.548181508,-0.1924479696,0.0833844054,0,1,1,1,0,1,1,1,0,0,0.01127097076,6,2,0.1919114273,0.0007362654912,25103.79282,25.87690477,1
臺北市中山區北安里10鄰劍南路350號,25.08741,121.553758,中山區,7723327.91,4,1368.209961,1440,1361.68,0.4933227665,0.3522857694,0.2934348737,3.109940749,1,-0.4690027747,0.570808739,-0.5422323236,0.212057138,2.715683806,0,1,1,0,0,0,1,0,0,1,0.05099621993,3,1,0.2278086819,0.002159681076,5363.42216,17.73615688,0
臺北市北投區石牌里4鄰自強街120巷15弄4號,25.110322,121.516198,北投區,32634930.67,3,5682.16,1300,379.25,0.05790319851,0.1825537629,0.1914917084,1.289948812,1,1.904077174,0.1466704068,1.548181508,-0.1924479696,0.0833844054,1,1,1,1,1,1,1,1,0,0,0.002024152911,8,3,0.1079871675,0.0009922683171,25103.79282,25.87690477,1
臺北市大同區國慶里8鄰民族西路252巷1之1號,25.068362,121.512379,大同區,2253601.36,6,568.15,868,0,0.1374685302,0.06425998394,0.307944477,0.4282700898,1,-0.990049073,1.419085404,-0.9299179467,-1.440635159,-0.932768957,1,1,1,1,1,1,1,1,0,0,0.002720296992,8,3,0.07281042731,0.0004933987209,2596.314931,20.97042557,1
臺北市文山區興泰里12鄰辛亥路四段130巷3號,25.004712,121.556628,文山區,15745617.73,1,3150.9,1350,943.56,0.01140556347,0.07491009142,0.06740525579,2.716589155,1,0.2952007692,-0.7016062578,0.3216070538,-0.04798185974,1.595383097,1,1,1,0,1,1,1,0,0,0,0.00005759049797,6,3,0.07686045534,0.002012288263,11663.42054,24.27161609,1
臺北市南港區中南里3鄰忠孝東路七段623號,25.053246,121.615585,南港區,9032463.69,0,2184.24,738,0,0.4019815486,0.1308292238,0.2393629917,1.469497479,1,-0.3442944651,-1.12574459,-0.1468080685,-1.816247044,-0.932768957,0,1,1,1,0,1,1,0,0,0,0.01258832329,5,2,0.772173764,0.001991188995,12239.11069,23.70535894,1
臺北市中山區埤頭里2鄰建國南路一段16號,25.045031,121.536282,中山區,7723327.91,4,1368.209961,1440,1361.68,0.249199222,0.1371936434,0.4783804566,1.061719015,1,-0.4690027747,0.570808739,-0.5422323236,0.212057138,2.715683806,1,1,1,1,0,1,1,1,0,1,0.01635513377,7,2,0.1729546644,0.0007373048712,5363.42216,17.73615688,0
臺北市北投區永明里4鄰立農街二段342號,25.118894,121.518075,北投區,32634930.67,3,5682.16,1300,379.25,0.1380400358,0.2670206339,0.5157155326,1.579663899,1,1.904077174,0.1466704068,1.548181508,-0.1924479696,0.0833844054,1,1,1,1,1,0,1,0,0,0,0.0190090362,6,2,0.2301940506,0.001215126076,25103.79282,25.87690477,0
臺北市中正區新營里14鄰羅斯福路一段129號,25.03019,121.52039,中正區,4852832.46,4,760.71,1869,368.2,0.2188396219,0.2168543163,0.2762035754,0.5057382363,1,-0.7424462485,0.570808739,-0.8366090108,1.451576361,0.05377730018,1,1,1,1,0,0,1,1,1,1,0.01310760432,6,1,0.1423795027,0.0002705929568,2596.486067,21.36763512,0
臺北市南港區成福里26鄰成福路257號,25.03865,121.590371,南港區,9032463.69,0,2184.24,738,0,0.2032657286,0.245183308,0.9418632114,1.947692003,1,-0.3442944651,-1.12574459,-0.1468080685,-1.816247044,-0.932768957,1,1,1,1,0,0,0,0,0,0,0.04693997946,4,0,1.390312248,0.002639149056,12239.11069,23.70535894,0
臺北市大安區古莊里17鄰浦城街59號,25.022273,121.526763,大安區,7146045.27,1,1136.14,1851,139.95,0.1837018268,0.1879114514,0.1323896913,0.6635297984,1,-0.5239947346,-0.7016062578,-0.6546866293,1.399568561,-0.5577902805,1,1,1,1,1,1,1,1,1,1,0.004570049371,8,3,0.2520014848,0.0003584709878,3860.64034,22.68600766,1
臺北市士林區義信里1鄰中山北路五段65號,25.083562,121.525163,士林區,28233710.05,2,6236.82,1480,457.06,0.4169078941,0.2508140179,0.04518109171,0.9764883809,1,1.484816779,-0.2774679255,1.816953498,0.3276300259,0.2918666549,0,1,1,1,0,0,1,1,0,1,0.004724421579,5,1,0.2376343346,0.0006597894466,19076.83111,25.81814465,0
臺北市文山區興福里13鄰興隆路二段22巷8弄8號,24.998211,121.545472,文山區,15745617.73,1,3150.9,1350,943.56,0.1069561373,0.1185636882,0.7391407385,1.097127165,1,0.2952007692,-0.7016062578,0.3216070538,-0.04798185974,1.595383097,1,1,1,1,1,1,0,1,0,0,0.009373128046,7,2,0.482330282,0.0008126867886,11663.42054,24.27161609,0
臺北市中山區下埤里21鄰民族東路566號,25.066398,121.543999,中山區,7723327.91,4,1368.209961,1440,1361.68,0.2701026783,0.2266341353,0.3241293898,0.8013981849,1,-0.4690027747,0.570808739,-0.5422323236,0.212057138,2.715683806,1,1,1,1,0,0,1,1,0,1,0.0198414143,6,1,0.1641732407,0.0005565265173,5363.42216,17.73615688,0
臺北市信義區長春里3鄰虎林街82巷82號,25.043258,121.575537,信義區,5953425.42,1,1120.77,1012,282.6,0.09172169742,0.07434696262,0.1658805108,0.08146930082,1,-0.6376037335,-0.7016062578,-0.6621344811,-1.024572762,-0.1755772887,1,1,1,1,1,1,1,1,0,0,0.001131177291,8,3,0.1659745854,0.00008050326168,5882.831443,22.33069826,1
臺北市文山區景華里13鄰三福街76號,24.997814,121.544088,文山區,15745617.73,1,3150.9,1350,943.56,0.1232566772,0.162797807,0.5620852913,0.9200647085,1,0.2952007692,-0.7016062578,0.3216070538,-0.04798185974,1.595383097,1,1,1,1,1,1,0,1,0,0,0.01127875666,7,2,0.4240698877,0.0006815294137,11663.42054,24.27161609,0
臺北市北投區榮光里2鄰西安街一段271號,25.111678,121.516972,北投區,32634930.67,3,5682.16,1300,379.25,0.2228408674,0.2371430458,0.1971852599,1.2827247,1,1.904077174,0.1466704068,1.548181508,-0.1924479696,0.0833844054,1,1,1,1,0,0,1,1,0,0,0.01042028701,6,1,0.1642922933,0.0009867113077,25103.79282,25.87690477,0
臺北市內湖區麗山里15鄰內湖路一段387巷3弄3號,25.082217,121.570426,內湖區,11254761.59,1,3157.87,1370,0,0.1521004875,0.08528991957,0.3766873898,2.808049136,1,-0.1325983074,-0.7016062578,0.3249845116,0.009804584201,-0.932768957,1,1,1,0,1,1,1,0,0,1,0.004886629278,6,3,0.3070388985,0.002049670902,8215.154445,24.29395488,1
臺北市信義區景勤里12鄰吳興街156巷85號,25.028542,121.558386,信義區,5953425.42,1,1120.77,1012,282.6,0.1085076512,0.1313799208,0.5974634585,2.780892892,1,-0.6376037335,-0.7016062578,-0.6621344811,-1.024572762,-0.1755772887,1,1,1,0,1,1,0,0,0,0,0.008517275731,5,2,0.4186755152,0.002747917877,5882.831443,22.33069826,0
臺北市萬華區忠德里10鄰民和街162號,25.024508,121.49547,萬華區,3740889.23,9,885.22,1009,0,0.0610774064,0.1580146096,1.089407711,0.8648514182,1,-0.8483699905,2.6915004,-0.7762751118,-1.033240729,-0.932768957,1,1,1,1,1,1,0,1,0,0,0.0105140073,7,2,0.1308499727,0.0008571371835,3707.521536,21.9206701,0
臺北市北投區大同里7鄰光明路71號,25.133012,121.500201,北投區,32634930.67,3,5682.16,1300,379.25,0.07863274357,0.1525666553,0.2206398927,0.9183751117,1,1.904077174,0.1466704068,1.548181508,-0.1924479696,0.0833844054,1,1,1,1,1,1,1,1,0,0,0.002646958254,8,3,0.1129598229,0.0007064423936,25103.79282,25.87690477,1
臺北市士林區福德里13鄰福德路78號,25.092637,121.521636,士林區,28233710.05,2,6236.82,1480,457.06,0.2037857723,0.1568488111,0.5489219646,0.3432012474,1,1.484816779,-0.2774679255,1.816953498,0.3276300259,0.2918666549,1,1,1,1,0,1,1,1,0,1,0.01754549801,7,2,0.303185516,0.0002318927347,19076.83111,25.81814465,0
臺北市南港區三重里6鄰三重路95號,25.061639,121.612973,南港區,9032463.69,0,2184.24,738,0,0.2113350949,0.2907517753,0.412189938,1.270602286,1,-0.3442944651,-1.12574459,-0.1468080685,-1.816247044,-0.932768957,1,1,1,1,0,0,1,1,0,0,0.02532744521,6,1,0.9142768083,0.001721683314,12239.11069,23.70535894,0
臺北市北投區大同里7鄰光明路71號,25.133012,121.500201,北投區,32634930.67,3,5682.16,1300,379.25,0.07863274357,0.1525666553,0.2206398927,0.9183751117,1,1.904077174,0.1466704068,1.548181508,-0.1924479696,0.0833844054,1,1,1,1,1,1,1,1,0,0,0.002646958254,8,3,0.1129598229,0.0007064423936,25103.79282,25.87690477,1
臺北市北投區石牌里6鄰明德路95號,25.109286,121.519155,北投區,32634930.67,3,5682.16,1300,379.25,0.1936341501,0.2990419843,0.0009202492406,1.017454352,1,1.904077174,0.1466704068,1.548181508,-0.1924479696,0.0833844054,1,1,1,1,1,0,1,1,0,0,0.00005328679344,7,2,0.1233990959,0.0007826571936,25103.79282,25.87690477,0
臺北市南港區三重里10鄰三重路5號,25.055736,121.613839,南港區,9032463.69,0,2184.24,738,0,0.4591910368,0.2344320641,0.3509507313,1.518470379,1,-0.3442944651,-1.12574459,-0.1468080685,-1.816247044,-0.932768957,0,1,1,1,0,0,1,0,0,0,0.03777953126,4,1,1.044573832,0.002057547938,12239.11069,23.70535894,0
臺北市信義區永春里2鄰中坡北路15巷2號,25.04476,121.58071,信義區,5953425.42,1,1120.77,1012,282.6,0.1786572032,0.06743632504,0.09754970977,0.5814074497,1,-0.6376037335,-0.7016062578,-0.6621344811,-1.024572762,-0.1755772887,1,1,1,1,1,1,1,1,0,0,0.001175277462,8,3,0.171821619,0.0005745132902,5882.831443,22.33069826,1
臺北市士林區德華里18鄰文林路773號,25.103539,121.519195,士林區,28233710.05,2,6236.82,1480,457.06,0.1331722448,0.2013767955,0.3395528815,0.6877212004,1,1.484816779,-0.2774679255,1.816953498,0.3276300259,0.2918666549,1,1,1,1,1,1,1,1,0,1,0.009106061235,8,3,0.2247006406,0.0004646764868,19076.83111,25.81814465,1
臺北市北投區福興里1鄰承德路七段1之1號,25.110443,121.510735,北投區,32634930.67,3,5682.16,1300,379.25,0.2603072329,0.1287457132,0.7587445762,1.295626252,1,1.904077174,0.1466704068,1.548181508,-0.1924479696,0.0833844054,1,1,1,1,0,1,0,1,0,0,0.0254281411,6,1,0.2869493806,0.0009966355785,25103.79282,25.87690477,0
臺北市信義區興隆里9鄰忠孝東路四段400號,25.041134,121.557901,信義區,5953425.42,1,1120.77,1012,282.6,0.06087761274,0.3205348527,0.01244939426,2.166735847,1,-0.6376037335,-0.7016062578,-0.6621344811,-1.024572762,-0.1755772887,1,1,1,1,1,0,1,0,0,0,0.000242929968,6,2,0.1969309298,0.002141043327,5882.831443,22.33069826,0
臺北市大安區建倫里9鄰忠孝東路四段212號,25.041229,121.552764,大安區,7146045.27,1,1136.14,1851,139.95,0.2646758627,0.2750943285,0.1374894698,2.673957665,1,-0.5239947346,-0.7016062578,-0.6546866293,1.399568561,-0.5577902805,1,1,1,0,0,0,1,0,1,1,0.01001072224,4,1,0.3386298305,0.001444601656,3860.64034,22.68600766,0
臺北市南港區新光里11鄰忠孝東路六段491號,25.051258,121.595372,南港區,9032463.69,0,2184.24,738,0,0.107367326,0.2010641528,0.2149413234,2.590944979,1,-0.3442944651,-1.12574459,-0.1468080685,-1.816247044,-0.932768957,1,1,1,0,1,1,1,0,0,0,0.004640093201,6,3,0.5233728022,0.003510765554,12239.11069,23.70535894,1
臺北市士林區天玉里17鄰中山北路七段51巷19號,25.120491,121.529938,士林區,28233710.05,2,6236.82,1480,457.06,0.3198772826,0.1173858224,1.813976909,2.847442236,1,1.484816779,-0.2774679255,1.816953498,0.3276300259,0.2918666549,1,1,0,0,0,1,0,0,0,1,0.06811312395,3,1,0.750413338,0.001923947457,19076.83111,25.81814465,0
臺北市大安區民炤里10鄰信義路三段1之2號,25.03379,121.533096,大安區,7146045.27,1,1136.14,1851,139.95,0.1148999889,0.2242690754,0.155358059,0.3245788867,1,-0.5239947346,-0.7016062578,-0.6546866293,1.399568561,-0.5577902805,1,1,1,1,1,0,1,1,1,1,0.004003346361,7,2,0.2472635617,0.0001753532613,3860.64034,22.68600766,0
臺北市中正區黎明里11鄰館前路77號,25.043707,121.515133,中正區,4852832.46,4,760.71,1869,368.2,0.3609904626,0.07225570567,0.1780103824,0.7678070123,1,-0.7424462485,0.570808739,-0.8366090108,1.451576361,0.05377730018,0,1,1,1,0,1,1,1,1,1,0.004643155279,6,2,0.1222513101,0.0004108116706,2596.486067,21.36763512,1
臺北市大同區光能里4鄰赤峰街41巷13號,25.054887,121.520323,大同區,2253601.36,6,568.15,868,0,0.2284175185,0.1546406401,0.1198794166,0.4114325461,1,-0.990049073,1.419085404,-0.9299179467,-1.440635159,-0.932768957,1,1,1,1,0,1,1,1,0,0,0.004234456428,7,2,0.07184822502,0.0004740006292,2596.314931,20.97042557,0
臺北市大同區光能里4鄰赤峰街41巷13號,25.054887,121.520323,大同區,2253601.36,6,568.15,868,0,0.2284175185,0.1546406401,0.1198794166,0.4114325461,1,-0.990049073,1.419085404,-0.9299179467,-1.440635159,-0.932768957,1,1,1,1,0,1,1,1,0,0,0.004234456428,7,2,0.07184822502,0.0004740006292,2596.314931,20.97042557,0
臺北市大安區義安里2鄰信義路四段216號,25.032972,121.552107,大安區,7146045.27,1,1136.14,1851,139.95,0.1166519995,0.2641682907,0.02851893174,2.340305923,1,-0.5239947346,-0.7016062578,-0.6546866293,1.399568561,-0.5577902805,1,1,1,1,1,0,1,0,1,1,0.0008788325367,6,2,0.204669611,0.001264346798,3860.64034,22.68600766,0
臺北市中正區黎明里5鄰忠孝西路一段86號,25.046962,121.513418,中正區,4852832.46,4,760.71,1869,368.2,0.5306404277,0.07237935581,0.3265928732,0.7658558203,1,-0.7424462485,0.570808739,-0.8366090108,1.451576361,0.05377730018,0,1,1,1,0,1,1,1,1,1,0.01254358714,6,2,0.1859225313,0.0004097676941,2596.486067,21.36763512,1
臺北市信義區興雅里1鄰忠孝東路五段1之10號,25.041291,121.565242,信義區,5953425.42,1,1120.77,1012,282.6,0.215417832,0.1445951752,0.03094924357,1.341093585,1,-0.6376037335,-0.7016062578,-0.6621344811,-1.024572762,-0.1755772887,1,1,1,1,0,1,1,1,0,0,0.0009640187733,7,2,0.1954811254,0.001325191289,5882.831443,22.33069826,0
臺北市大安區芳和里13鄰和平東路三段226號,25.022334,121.554436,大安區,7146045.27,1,1136.14,1851,139.95,0.06204249782,0.2225870038,0.2773384828,2.511955916,1,-0.5239947346,-0.7016062578,-0.6546866293,1.399568561,-0.5577902805,1,1,1,0,1,0,1,0,1,1,0.003830003872,5,2,0.2809839922,0.001357080452,3860.64034,22.68600766,0
臺北市內湖區東湖里9鄰康樂街76巷8號,25.070112,121.61859,內湖區,11254761.59,1,3157.87,1370,0,0.03324025022,0.07641166796,0.8744531677,0.1518260121,1,-0.1325983074,-0.7016062578,0.3249845116,0.009804584201,-0.932768957,1,1,1,1,1,1,0,1,0,1,0.00222106117,7,2,0.492052543,0.0001108219067,8215.154445,24.29395488,0
臺北市士林區福德里19鄰中正路435巷29號,25.092721,121.521041,士林區,28233710.05,2,6236.82,1480,457.06,0.2650810462,0.08578185506,0.6102186662,0.2721345558,1,1.484816779,-0.2774679255,1.816953498,0.3276300259,0.2918666549,1,1,1,1,0,1,0,1,0,1,0.01387585005,6,1,0.3203605225,0.0001838746998,19076.83111,25.81814465,0
臺北市大安區住安里2鄰復興南路二段55號,25.03094,121.54376,大安區,7146045.27,1,1136.14,1851,139.95,0.1109951838,0.1922438364,0.1164013055,1.293544917,1,-0.5239947346,-0.7016062578,-0.6546866293,1.399568561,-0.5577902805,1,1,1,1,1,1,1,1,1,1,0.002483787349,8,3,0.2098201629,0.0006988357199,3860.64034,22.68600766,1
臺北市北投區石牌里6鄰明德路95號,25.109286,121.519155,北投區,32634930.67,3,5682.16,1300,379.25,0.1936341501,0.2990419843,0.0009202492406,1.017454352,1,1.904077174,0.1466704068,1.548181508,-0.1924479696,0.0833844054,1,1,1,1,1,0,1,1,0,0,0.00005328679344,7,2,0.1233990959,0.0007826571936,25103.79282,25.87690477,0
臺北市南港區合成里24鄰忠孝東路六段319號,25.050453,121.59155,南港區,9032463.69,0,2184.24,738,0,0.4985439351,0.2709654278,0.1386143155,2.118873542,1,-0.3442944651,-1.12574459,-0.1468080685,-1.816247044,-0.932768957,0,1,1,1,0,0,1,0,0,0,0.0187251543,4,1,0.9081236784,0.00287110236,12239.11069,23.70535894,0
臺北市士林區承德里18鄰基河路48號,25.083966,121.524529,士林區,28233710.05,2,6236.82,1480,457.06,0.3330093131,0.1567979506,0.06000090594,1.070487791,1,1.484816779,-0.2774679255,1.816953498,0.3276300259,0.2918666549,1,1,1,1,0,1,1,1,0,1,0.003132957972,7,2,0.1832693899,0.0007233025612,19076.83111,25.81814465,0
臺北市大安區古風里10鄰雲和街88號,25.023254,121.531004,大安區,7146045.27,1,1136.14,1851,139.95,0.06668232994,0.1501038222,0.3906728906,0.5724729903,1,-0.5239947346,-0.7016062578,-0.6546866293,1.399568561,-0.5577902805,1,1,1,1,1,1,1,1,1,1,0.00391035146,8,3,0.3037295214,0.0003092776825,3860.64034,22.68600766,1
臺北市信義區新仁里1鄰忠孝東路四段547號,25.041495,121.562146,信義區,5953425.42,1,1120.77,1012,282.6,0.07947155945,0.1788610909,0.3548536107,1.673569277,1,-0.6376037335,-0.7016062578,-0.6621344811,-1.024572762,-0.1755772887,1,1,1,1,1,1,1,0,0,0,0.005044020453,7,3,0.3065931305,0.001653724582,5882.831443,22.33069826,1
臺北市文山區興泰里13鄰辛亥路四段22號,25.008737,121.558115,文山區,15745617.73,1,3150.9,1350,943.56,0.1910134785,0.04530822279,0.3323022182,3.116333799,1,0.2952007692,-0.7016062578,0.3216070538,-0.04798185974,1.595383097,1,1,1,0,1,1,1,0,0,0,0.002875903314,6,3,0.2843119598,0.002308395406,11663.42054,24.27161609,1
臺北市大同區玉泉里12鄰延平北路一段2號,25.048679,121.51133,大同區,2253601.36,6,568.15,868,0,0.4053690986,0.0786276351,0.1442084903,0.4337643028,1,-0.990049073,1.419085404,-0.9299179467,-1.440635159,-0.932768957,0,1,1,1,0,1,1,1,0,0,0.004596388009,6,2,0.08974360343,0.0004997284594,2596.314931,20.97042557,1
臺北市北投區長安里13鄰光明路132之10號,25.133972,121.502369,北投區,32634930.67,3,5682.16,1300,379.25,0.1451468886,0.1218017392,0.1759090678,1.002604102,1,1.904077174,0.1466704068,1.548181508,-0.1924479696,0.0833844054,1,1,1,1,1,1,1,1,0,0,0.003109921645,8,3,0.1107144239,0.0007712339248,25103.79282,25.87690477,1
臺北市大安區學府里16鄰辛亥路三段30號,25.020572,121.544251,大安區,7146045.27,1,1136.14,1851,139.95,0.08099792478,0.3625453978,0.3932265974,1.481535033,1,-0.5239947346,-0.7016062578,-0.6546866293,1.399568561,-0.5577902805,1,1,1,1,1,0,1,0,1,1,0.0115472661,6,2,0.41838496,0.0008003971003,3860.64034,22.68600766,0
臺北市士林區舊佳里19鄰中正路258號,25.09521,121.524713,士林區,28233710.05,2,6236.82,1480,457.06,0.1782269299,0.2918654662,0.2035777763,0.8171848437,1,1.484816779,-0.2774679255,1.816953498,0.3276300259,0.2918666549,1,1,1,1,1,0,1,1,0,1,0.01058976699,7,2,0.2245567241,0.0005521519214,19076.83111,25.81814465,0
臺北市北投區石牌里12鄰西安街一段151號,25.109241,121.518822,北投區,32634930.67,3,5682.16,1300,379.25,0.1539769778,0.3386972151,0.04013154387,0.977789041,1,1.904077174,0.1466704068,1.548181508,-0.1924479696,0.0833844054,1,1,1,1,1,0,1,1,0,0,0.002092923162,7,2,0.1332014342,0.0007521454161,25103.79282,25.87690477,0
臺北市士林區義信里1鄰中山北路五段65號,25.083562,121.525163,士林區,28233710.05,2,6236.82,1480,457.06,0.4169078941,0.2508140179,0.04518109171,0.9764883809,1,1.484816779,-0.2774679255,1.816953498,0.3276300259,0.2918666549,0,1,1,1,0,0,1,1,0,1,0.004724421579,5,1,0.2376343346,0.0006597894466,19076.83111,25.81814465,0
臺北市內湖區湖元里4鄰民權東路六段136巷50號,25.066511,121.587627,內湖區,11254761.59,1,3157.87,1370,0,0.0958906179,0.1675538778,0.9294845232,2.618056087,1,-0.1325983074,-0.7016062578,0.3249845116,0.009804584201,-0.932768957,1,1,1,0,1,1,0,0,0,1,0.01493388365,5,2,0.5964645095,0.001910989845,8215.154445,24.29395488,0
臺北市士林區德行里10鄰福國路71號,25.101717,121.523172,士林區,28233710.05,2,6236.82,1480,457.06,0.05268175032,0.2450555709,0.0787524419,1.024193156,1,1.484816779,-0.2774679255,1.816953498,0.3276300259,0.2918666549,1,1,1,1,1,0,1,1,0,1,0.001016690591,7,2,0.1254965877,0.0006920224024,19076.83111,25.81814465,0
臺北市士林區義信里1鄰中山北路五段65號,25.083562,121.525163,士林區,28233710.05,2,6236.82,1480,457.06,0.4169078941,0.2508140179,0.04518109171,0.9764883809,1,1.484816779,-0.2774679255,1.816953498,0.3276300259,0.2918666549,0,1,1,1,0,0,1,1,0,1,0.004724421579,5,1,0.2376343346,0.0006597894466,19076.83111,25.81814465,0
臺北市大同區老師里16鄰延平北路四段336號,25.078032,121.511477,大同區,2253601.36,6,568.15,868,0,0.3280601652,0.03691918513,0.859911831,0.711341572,1,-0.990049073,1.419085404,-0.9299179467,-1.440635159,-0.932768957,1,1,1,1,0,1,0,1,0,0,0.01041500614,6,1,0.1749844545,0.0008195179401,2596.314931,20.97042557,0
臺北市中正區黎明里1鄰北平西路2之1號,25.047067,121.519647,中正區,4852832.46,4,760.71,1869,368.2,0.1973450822,0.07914533719,0.122488799,0.2547967795,1,-0.7424462485,0.570808739,-0.8366090108,1.451576361,0.05377730018,1,1,1,1,0,1,1,1,1,1,0.001913145578,7,2,0.07979584367,0.0001363278649,2596.486067,21.36763512,0
臺北市中正區黎明里4鄰常德街1號,25.041399,121.517172,中正區,4852832.46,4,760.71,1869,368.2,0,0.339079342,0.07502251646,0.6752307763,1,-0.7424462485,0.570808739,-0.8366090108,1.451576361,0.05377730018,1,1,1,1,1,0,1,1,1,1,0,7,2,0.08282037169,0.0003612791741,2596.486067,21.36763512,0
臺北市內湖區湖興里24鄰成功路二段318之1號,25.067475,121.590498,內湖區,11254761.59,1,3157.87,1370,0,0.1641146978,0.06098489197,1.192713571,2.993672361,1,-0.1325983074,-0.7016062578,0.3249845116,0.009804584201,-0.932768957,1,1,1,0,1,1,0,0,0,1,0.01193729419,5,2,0.7089065806,0.002185162307,8215.154445,24.29395488,0
臺北市大同區建明里7鄰華陰街72巷6號,25.050142,121.514604,大同區,2253601.36,6,568.15,868,0,0.4309955236,0.186585737,0.3795649841,0.4849440235,1,-0.990049073,1.419085404,-0.9299179467,-1.440635159,-0.932768957,0,1,1,1,0,1,1,1,0,0,0.03052371168,6,2,0.1424494635,0.0005586912713,2596.314931,20.97042557,1
臺北市中山區民安里2鄰華陰街24巷4弄1號,25.048853,121.519713,中山區,7723327.91,4,1368.209961,1440,1361.68,0.08993009011,0.1019396892,0.1177348655,0.1582822561,1,-0.4690027747,0.570808739,-0.5422323236,0.212057138,2.715683806,1,1,1,1,1,1,1,1,0,1,0.001079327955,8,3,0.06192092896,0.0001099182334,5363.42216,17.73615688,1
臺北市松山區東榮里1鄰民生東路五段137巷1號,25.059023,121.561473,松山區,4973385.2,0,928.78,1129,97.8,0.1543047072,0.1298596674,0.6325428415,2.452992063,1,-0.7309623912,-1.12574459,-0.7551672116,-0.6865220653,-0.6707259805,1,1,1,0,1,1,0,0,0,0,0.01267486686,5,2,0.9167072161,0.002172712191,4405.124181,22.14221702,0
臺北市大安區新龍里26鄰瑞安街208巷86號,25.031061,121.540482,大安區,7146045.27,1,1136.14,1851,139.95,0.1493289668,0.1578710471,0.2922774666,0.9359519392,1,-0.5239947346,-0.7016062578,-0.6546866293,1.399568561,-0.5577902805,1,1,1,1,1,1,1,1,1,1,0.006890359541,8,3,0.2997387403,0.0005056466446,3860.64034,22.68600766,1
臺北市中正區新營里11鄰羅斯福路一段83巷17號,25.031351,121.520448,中正區,4852832.46,4,760.71,1869,368.2,0.1577775599,0.290819596,0.2151414807,0.5668011328,1,-0.7424462485,0.570808739,-0.8366090108,1.451576361,0.05377730018,1,1,1,1,1,0,1,1,1,1,0.009871725148,7,2,0.1327477273,0.0003032643835,2596.486067,21.36763512,0
臺北市中正區文祥里17鄰杭州南路一段101巷30之2號,25.037289,121.527299,中正區,4852832.46,4,760.71,1869,368.2,0.1765745526,0.3011775509,0.2080881807,0.5237537832,1,-0.7424462485,0.570808739,-0.8366090108,1.451576361,0.05377730018,1,1,1,1,1,0,1,1,1,1,0.01106619007,7,2,0.1371680569,0.0002802320937,2596.486067,21.36763512,0
臺北市中山區松江里23鄰建國北路二段264號,25.06209,121.536652,中山區,7723327.91,4,1368.209961,1440,1361.68,0.2343853351,0.1847984322,0.4917697306,0.2664521788,1,-0.4690027747,0.570808739,-0.5422323236,0.212057138,2.715683806,1,1,1,1,0,1,1,1,0,1,0.02130053499,7,2,0.1821906996,0.0001850362353,5363.42216,17.73615688,0
臺北市中正區幸福里4鄰忠孝東路一段58號,25.044554,121.523529,中正區,4852832.46,4,760.71,1869,368.2,0.03772467063,0.444964947,0.02361630499,0.5460879818,1,-0.7424462485,0.570808739,-0.8366090108,1.451576361,0.05377730018,1,0,1,1,1,0,1,1,1,1,0.0003964269812,6,2,0.1012611845,0.0002921819057,2596.486067,21.36763512,1
臺北市大安區和安里4鄰復興南路一段390號,25.033722,121.543381,大安區,7146045.27,1,1136.14,1851,139.95,0.1106182885,0.1197704883,0.05745831657,1.413268683,1,-0.5239947346,-0.7016062578,-0.6546866293,1.399568561,-0.5577902805,1,1,1,1,1,1,1,0,1,1,0.0007612541138,7,3,0.1439235467,0.0007635163065,3860.64034,22.68600766,1
臺北市信義區中興里9鄰基隆路一段436號,25.033622,121.559684,信義區,5953425.42,1,1120.77,1012,282.6,0.1956121497,0.08597235535,0.2509950159,2.405742131,1,-0.6376037335,-0.7016062578,-0.6621344811,-1.024572762,-0.1755772887,1,1,1,1,0,1,1,0,0,0,0.004221042729,6,2,0.2662897604,0.002377215544,5882.831443,22.33069826,0
臺北市萬華區仁德里5鄰西寧南路317號,25.037906,121.506486,萬華區,3740889.23,9,885.22,1009,0,0.22016042,0.2052596928,0.366068481,0.1684934409,1,-0.8483699905,2.6915004,-0.7762751118,-1.033240729,-0.932768957,1,1,1,1,0,1,1,1,0,0,0.01654265668,7,2,0.07914885937,0.0001669905262,3707.521536,21.9206701,0
臺北市大安區錦華里16鄰羅斯福路二段15巷2之1號,25.028206,121.522088,大安區,7146045.27,1,1136.14,1851,139.95,0.07495758664,0.2903545385,0.0621520512,0.2960554275,1,-0.5239947346,-0.7016062578,-0.6546866293,1.399568561,-0.5577902805,1,1,1,1,1,0,1,1,1,1,0.001352694364,7,2,0.2137320882,0.0001599435048,3860.64034,22.68600766,0
臺北市大同區玉泉里9鄰鄭州路145號,25.050692,121.508887,大同區,2253601.36,6,568.15,868,0,0.1004119831,0.1816010789,0.1925889477,0.3221736632,1,-0.990049073,1.419085404,-0.9299179467,-1.440635159,-0.932768957,1,1,1,1,1,1,1,1,0,0,0.003511844916,8,3,0.06780028711,0.0003711678148,2596.314931,20.97042557,1
臺北市士林區葫東里4鄰重慶北路四段220巷41號,25.085908,121.512204,士林區,28233710.05,2,6236.82,1480,457.06,0.3724189399,0.2021963883,1.334143425,1.088373405,1,1.484816779,-0.2774679255,1.816953498,0.3276300259,0.2918666549,0,1,0,1,0,1,0,1,0,1,0.1004633541,4,1,0.6362529177,0.0007353874355,19076.83111,25.81814465,1
臺北市中正區建國里4鄰貴陽街一段1號,25.038567,121.516161,中正區,4852832.46,4,760.71,1869,368.2,0.1559177579,0.2102833147,0.1842350662,0.9523342833,1,-0.7424462485,0.570808739,-0.8366090108,1.451576361,0.05377730018,1,1,1,1,1,0,1,1,1,1,0.006040497236,7,2,0.1100872278,0.0005095421527,2596.486067,21.36763512,0
臺北市文山區萬年里11鄰羅斯福路五段170巷1之1號,25.004463,121.53831,文山區,15745617.73,1,3150.9,1350,943.56,0.1951207533,0.257195842,0.1331113559,1.017859302,1,0.2952007692,-0.7016062578,0.3216070538,-0.04798185974,1.595383097,1,1,1,1,0,0,1,1,0,0,0.006680093085,6,1,0.2927139756,0.000753969853,11663.42054,24.27161609,0
臺北市士林區社園里14鄰延平北路六段200號,25.089656,121.505538,士林區,28233710.05,2,6236.82,1480,457.06,0.05739604302,0.07194898391,1.852586388,1.604768283,1,1.484816779,-0.2774679255,1.816953498,0.3276300259,0.2918666549,1,1,0,1,1,1,0,0,0,1,0.007650416618,5,2,0.6606438048,0.001084302894,19076.83111,25.81814465,1
臺北市中正區南門里3鄰廣州街8巷5之1號,25.034934,121.508195,中正區,4852832.46,4,760.71,1869,368.2,0.03346940018,0.4359647213,0.2323748774,0.5304688741,1,-0.7424462485,0.570808739,-0.8366090108,1.451576361,0.05377730018,1,0,1,1,1,0,1,1,1,1,0.003390692846,6,2,0.1403617998,0.0002838249728,2596.486067,21.36763512,1
臺北市大同區至聖里3鄰承德路三段225巷21號,25.070208,121.519559,大同區,2253601.36,6,568.15,868,0,0.2252824065,0.0900677442,0.08627537551,0.6425378755,1,-0.990049073,1.419085404,-0.9299179467,-1.440635159,-0.932768957,1,1,1,1,0,1,1,1,0,0,0.001750585878,7,2,0.05737507518,0.0007402510087,2596.314931,20.97042557,0
臺北市大同區至聖里3鄰承德路三段225巷21號,25.070208,121.519559,大同區,2253601.36,6,568.15,868,0,0.2252824065,0.0900677442,0.08627537551,0.6425378755,1,-0.990049073,1.419085404,-0.9299179467,-1.440635159,-0.932768957,1,1,1,1,0,1,1,1,0,0,0.001750585878,7,2,0.05737507518,0.0007402510087,2596.314931,20.97042557,0
臺北市松山區慈祐里15鄰市民大道六段57號,25.049605,121.573611,松山區,4973385.2,0,928.78,1129,97.8,0.1329156274,0.08299097158,0.3258315523,0.5546847672,1,-0.7309623912,-1.12574459,-0.7551672116,-0.6865220653,-0.6707259805,1,1,1,1,1,1,1,1,0,0,0.003594181729,8,3,0.5417381513,0.0004913062597,4405.124181,22.14221702,1
臺北市中山區復華里14鄰南京東路三段1號,25.052216,121.537187,中山區,7723327.91,4,1368.209961,1440,1361.68,0.113147063,0.1313147936,0.3649116379,0.7814061892,1,-0.4690027747,0.570808739,-0.5422323236,0.212057138,2.715683806,1,1,1,1,1,1,1,1,0,1,0.005421814504,8,3,0.1218746989,0.0005426431869,5363.42216,17.73615688,1
臺北市大安區學府里1鄰羅斯福路四段131之1號,25.01057,121.537449,大安區,7146045.27,1,1136.14,1851,139.95,0.09551182514,0.2635150683,0.5447631502,0.8801512588,1,-0.5239947346,-0.7016062578,-0.6546866293,1.399568561,-0.5577902805,1,1,1,1,1,0,1,1,1,1,0.01371103757,7,2,0.4518950218,0.0004755004099,3860.64034,22.68600766,0
臺北市士林區德行里5鄰中山北路六段1號,25.10256,121.525022,士林區,28233710.05,2,6236.82,1480,457.06,0.2409704265,0.1300703711,0.2952880261,1.279023576,1,1.484816779,-0.2774679255,1.816953498,0.3276300259,0.2918666549,1,1,1,1,0,1,1,1,0,1,0.009255245912,7,2,0.2221096079,0.0008642051187,19076.83111,25.81814465,0
臺北市大安區古莊里10鄰羅斯福路二段115號,25.024348,121.524728,大安區,7146045.27,1,1136.14,1851,139.95,0.1235555217,0.3876518712,0.2200557611,0.3653459475,1,-0.5239947346,-0.7016062578,-0.6546866293,1.399568561,-0.5577902805,1,0,1,1,1,0,1,1,1,1,0.01053990718,6,2,0.365631577,0.0001973776053,3860.64034,22.68600766,1
臺北市內湖區港墘里21鄰港墘路127巷37號,25.077527,121.576106,內湖區,11254761.59,1,3157.87,1370,0,0.2020182671,0.2378148812,0.2136202869,1.977760977,1,-0.1325983074,-0.7016062578,0.3249845116,0.009804584201,-0.932768957,1,1,1,1,0,0,1,0,0,1,0.01026294881,5,1,0.3267267176,0.001443621151,8215.154445,24.29395488,0
臺北市大安區錦華里12鄰杭州南路二段93巷80之1號,25.028323,121.524822,大安區,7146045.27,1,1136.14,1851,139.95,0.1333425901,0.1606873086,0.2830294872,0.6069816922,1,-0.5239947346,-0.7016062578,-0.6546866293,1.399568561,-0.5577902805,1,1,1,1,1,1,1,1,1,1,0.006064320531,8,3,0.288529693,0.0003279209574,3860.64034,22.68600766,1
臺北市萬華區福星里20鄰漢口街二段127號,25.046458,121.503899,萬華區,3740889.23,9,885.22,1009,0,0.2269741621,0.2465387255,0.6376953537,0.1810002282,1,-0.8483699905,2.6915004,-0.7762751118,-1.033240729,-0.932768957,1,1,1,1,0,0,0,1,0,0,0.03568410599,5,0,0.1111208241,0.0001793857564,3707.521536,21.9206701,0
臺北市大同區光能里13鄰南京西路25巷54之1號,25.057427,121.520491,大同區,2253601.36,6,568.15,868,0,0.3664307527,0.1738038424,0.01497619047,0.5404509769,1,-0.990049073,1.419085404,-0.9299179467,-1.440635159,-0.932768957,0,1,1,1,0,1,1,1,0,0,0.0009537897325,6,2,0.07931582651,0.0006226393743,2596.314931,20.97042557,1
臺北市中山區民安里10鄰南京西路21號,25.05283,121.520621,中山區,7723327.91,4,1368.209961,1440,1361.68,0.216995663,0.02366299404,0.03666564108,0.2586694256,1,-0.4690027747,0.570808739,-0.5422323236,0.212057138,2.715683806,1,1,1,1,0,1,1,1,0,1,0.0001882695267,7,2,0.05546485961,0.0001796315456,5363.42216,17.73615688,0
臺北市大同區玉泉里12鄰忠孝西路二段9號,25.048463,121.509553,大同區,2253601.36,6,568.15,868,0,0.1951500377,0.2637242781,0.05029852624,0.3776770673,1,-0.990049073,1.419085404,-0.9299179467,-1.440635159,-0.932768957,1,1,1,1,0,0,1,1,0,0,0.002588654034,6,1,0.07273897744,0.0004351118287,2596.314931,20.97042557,0
臺北市南港區舊莊里3鄰舊莊街一段100號,25.040268,121.619575,南港區,9032463.69,0,2184.24,738,0,0,0.1415665048,0.9615507202,1.875837368,1,-0.3442944651,-1.12574459,-0.1468080685,-1.816247044,-0.932768957,1,1,1,1,1,1,0,0,0,0,0,6,2,1.103117225,0.002541785052,12239.11069,23.70535894,0
臺北市大同區玉泉里9鄰鄭州路145號,25.050692,121.508887,大同區,2253601.36,6,568.15,868,0,0.1004119831,0.1816010789,0.1925889477,0.3221736632,1,-0.990049073,1.419085404,-0.9299179467,-1.440635159,-0.932768957,1,1,1,1,1,1,1,1,0,0,0.003511844916,8,3,0.06780028711,0.0003711678148,2596.314931,20.97042557,1
臺北市中正區頂東里1鄰羅斯福路三段100之26號,25.021342,121.527046,中正區,4852832.46,4,760.71,1869,368.2,0.196344487,0.2105826212,0.04676323761,0.7491576149,1,-0.7424462485,0.570808739,-0.8366090108,1.451576361,0.05377730018,1,1,1,1,0,0,1,1,1,1,0.001933507274,6,1,0.09073806916,0.0004008333948,2596.486067,21.36763512,0
臺北市中正區富水里2鄰思源街24號,25.012255,121.528561,中正區,4852832.46,4,760.71,1869,368.2,0.3300903577,0.5361560858,0.4301626682,0.5246929072,1,-0.7424462485,0.570808739,-0.8366090108,1.451576361,0.05377730018,1,0,1,1,0,0,1,1,1,1,0.07613016928,5,1,0.2592818223,0.0002807345678,2596.486067,21.36763512,0
臺北市萬華區福音里9鄰永福街116號,25.038912,121.502028,萬華區,3740889.23,9,885.22,1009,0,0.1309872441,0.1018149455,0.2480589728,0.3351288936,1,-0.8483699905,2.6915004,-0.7762751118,-1.033240729,-0.932768957,1,1,1,1,1,1,1,1,0,0,0.003308228349,8,3,0.04808611624,0.0003321396369,3707.521536,21.9206701,1
臺北市南港區中南里3鄰忠孝東路七段623號,25.053246,121.615585,南港區,9032463.69,0,2184.24,738,0,0.4019815486,0.1308292238,0.2393629917,1.469497479,1,-0.3442944651,-1.12574459,-0.1468080685,-1.816247044,-0.932768957,0,1,1,1,0,1,1,0,0,0,0.01258832329,5,2,0.772173764,0.001991188995,12239.11069,23.70535894,1
臺北市信義區四育里13鄰虎林街46巷49號,25.047219,121.574603,信義區,5953425.42,1,1120.77,1012,282.6,0.0679524984,0.05656095409,0.3544551921,0.3053909219,1,-0.6376037335,-0.7016062578,-0.6621344811,-1.024572762,-0.1755772887,1,1,1,1,1,1,1,1,0,0,0.001362333694,8,3,0.2394843223,0.0003017696856,5882.831443,22.33069826,1
臺北市大同區揚雅里5鄰昌吉街61巷35弄32號,25.06697,121.515686,大同區,2253601.36,6,568.15,868,0,0.09747843379,0.07612919488,0.4376834996,0.5029828385,1,-0.990049073,1.419085404,-0.9299179467,-1.440635159,-0.932768957,1,1,1,1,1,1,1,1,0,0,0.003248029416,8,3,0.08732730404,0.0005794733163,2596.314931,20.97042557,1
臺北市大同區揚雅里5鄰昌吉街61巷35弄32號,25.06697,121.515686,大同區,2253601.36,6,568.15,868,0,0.09747843379,0.07612919488,0.4376834996,0.5029828385,1,-0.990049073,1.419085404,-0.9299179467,-1.440635159,-0.932768957,1,1,1,1,1,1,1,1,0,0,0.003248029416,8,3,0.08732730404,0.0005794733163,2596.314931,20.97042557,1
臺北市大同區蓬萊里22鄰重慶北路三段53之1號,25.065828,121.513904,大同區,2253601.36,6,568.15,868,0,0.1327422571,0.156611408,0.1730660242,0.2975993993,1,-0.990049073,1.419085404,-0.9299179467,-1.440635159,-0.932768957,1,1,1,1,1,1,1,1,0,0,0.003597861231,8,3,0.0660599556,0.0003428564509,2596.314931,20.97042557,1
臺北市士林區葫東里13鄰延平北路五段334號,25.086528,121.50953,士林區,28233710.05,2,6236.82,1480,457.06,0.1492428599,0.1100974211,1.570328739,1.364061374,1,1.484816779,-0.2774679255,1.816953498,0.3276300259,0.2918666549,1,1,0,1,1,1,0,0,0,1,0.02580247035,5,2,0.6098896732,0.0009216630903,19076.83111,25.81814465,1
臺北市大安區敦安里19鄰仁愛路四段110號,25.037156,121.549483,大安區,7146045.27,1,1136.14,1851,139.95,0.06396608091,0.04979488802,0.2597759593,2.071939053,1,-0.5239947346,-0.7016062578,-0.6546866293,1.399568561,-0.5577902805,1,1,1,1,1,1,1,0,1,1,0.0008274341866,7,3,0.1867684641,0.001119361995,3860.64034,22.68600766,1
臺北市北投區一德里22鄰大度路三段296巷5號,25.123657,121.466401,北投區,32634930.67,3,5682.16,1300,379.25,0.2355272938,0.05075361071,0.1564317728,0.3550364139,1,1.904077174,0.1466704068,1.548181508,-0.1924479696,0.0833844054,1,1,1,1,0,1,1,1,0,0,0.001869963602,7,2,0.1106781693,0.0002731049338,25103.79282,25.87690477,0
臺北市內湖區安泰里5鄰安泰街53巷19號,25.075098,121.61753,內湖區,11254761.59,1,3157.87,1370,0,0.3024157002,0.1819740625,1.047274491,0.3827353256,1,-0.1325983074,-0.7016062578,0.3249845116,0.009804584201,-0.932768957,1,1,1,1,0,1,0,1,0,1,0.05763341452,6,1,0.7658321269,0.0002793688508,8215.154445,24.29395488,0
臺北市中正區富水里2鄰思源街24號,25.012255,121.528561,中正區,4852832.46,4,760.71,1869,368.2,0.3300903577,0.5361560858,0.4301626682,0.5246929072,1,-0.7424462485,0.570808739,-0.8366090108,1.451576361,0.05377730018,1,0,1,1,0,0,1,1,1,1,0.07613016928,5,1,0.2592818223,0.0002807345678,2596.486067,21.36763512,0
臺北市中山區新庄里12鄰德惠街125號,25.066693,121.530099,中山區,7723327.91,4,1368.209961,1440,1361.68,0.10651048,0.07732748168,0.5773123102,0.3875211805,1,-0.4690027747,0.570808739,-0.5422323236,0.212057138,2.715683806,1,1,1,1,1,1,0,1,0,1,0.004754852254,7,2,0.1522300544,0.0002691119309,5363.42216,17.73615688,0
臺北市中正區富水里2鄰思源街24號,25.012255,121.528561,中正區,4852832.46,4,760.71,1869,368.2,0.3300903577,0.5361560858,0.4301626682,0.5246929072,1,-0.7424462485,0.570808739,-0.8366090108,1.451576361,0.05377730018,1,0,1,1,0,0,1,1,1,1,0.07613016928,5,1,0.2592818223,0.0002807345678,2596.486067,21.36763512,0
臺北市中正區幸市里5鄰忠孝東路二段136號,25.041642,121.531934,中正區,4852832.46,4,760.71,1869,368.2,0.1125861874,0.02056884366,0.04138760633,0.3808885254,1,-0.7424462485,0.570808739,-0.8366090108,1.451576361,0.05377730018,1,1,1,1,1,1,1,1,1,1,0.00009584408138,8,3,0.03490852748,0.0002037926835,2596.486067,21.36763512,1
臺北市大同區景星里6鄰伊寧街48巷10號,25.064246,121.510735,大同區,2253601.36,6,568.15,868,0,0.09793294056,0.1938483296,0.1409745428,0.0652955914,1,-0.990049073,1.419085404,-0.9299179467,-1.440635159,-0.932768957,1,1,1,1,1,1,1,1,0,0,0.002676280025,8,3,0.06182225899,0.00007522533572,2596.314931,20.97042557,1
臺北市大安區華聲里9鄰忠孝東路四段343號,25.041558,121.557436,大安區,7146045.27,1,1136.14,1851,139.95,0.1192616542,0.2441297882,0.0662741964,2.193773268,1,-0.5239947346,-0.7016062578,-0.6546866293,1.399568561,-0.5577902805,1,1,1,1,1,0,1,0,1,1,0.001929594593,6,2,0.2148328194,0.001185182749,3860.64034,22.68600766,0
臺北市中正區板溪里14鄰和平西路一段74號,25.026281,121.51908,中正區,4852832.46,4,760.71,1869,368.2,0.2034152018,0.156168542,0.3577924299,0.3438290068,1,-0.7424462485,0.570808739,-0.8366090108,1.451576361,0.05377730018,1,1,1,1,0,1,1,1,1,1,0.01136601197,7,2,0.1434752347,0.0001839641556,2596.486067,21.36763512,0
臺北市文山區景華里3鄰景華街22巷20號,24.993635,121.542253,文山區,15745617.73,1,3150.9,1350,943.56,0.1128298879,0.1233129187,0.1147991984,0.4727693226,1,0.2952007692,-0.7016062578,0.3216070538,-0.04798185974,1.595383097,1,1,1,1,1,1,1,1,0,0,0.001597245192,8,3,0.1754710025,0.0003501994982,11663.42054,24.27161609,1
臺北市文山區萬年里17鄰羅斯福路五段210號,25.002863,121.538489,文山區,15745617.73,1,3150.9,1350,943.56,0.2822182407,0.2943141736,0.02011194637,0.9048636444,1,0.2952007692,-0.7016062578,0.3216070538,-0.04798185974,1.595383097,1,1,1,1,0,0,1,1,0,0,0.001670514924,6,1,0.2983221803,0.0006702693662,11663.42054,24.27161609,0
臺北市士林區聖山里22鄰忠誠路一段171巷10弄10號,25.106715,121.530452,士林區,28233710.05,2,6236.82,1480,457.06,0.140781727,0.2176858648,1.069843271,2.124776663,1,1.484816779,-0.2774679255,1.816953498,0.3276300259,0.2918666549,1,1,1,1,1,0,0,0,0,1,0.03278662227,5,1,0.4761036208,0.001435659908,19076.83111,25.81814465,0
臺北市萬華區菜園里4鄰西昌街29巷21號,25.042764,121.501302,萬華區,3740889.23,9,885.22,1009,0,0.2765972884,0.2267647732,0.4623656469,0.3225610605,1,-0.8483699905,2.6915004,-0.7762751118,-1.033240729,-0.932768957,1,1,1,1,0,0,1,1,0,0,0.02900073917,6,1,0.09657277085,0.0003196839054,3707.521536,21.9206701,0
臺北市大同區保安里9鄰重慶北路三段295巷21弄17號,25.074,121.514892,大同區,2253601.36,6,568.15,868,0,0.1855156419,0.05799594064,0.7094827878,0.1825503264,1,-0.990049073,1.419085404,-0.9299179467,-1.440635159,-0.932768957,1,1,1,1,1,1,0,1,0,0,0.007633434686,7,2,0.1361420529,0.000210311436,2596.314931,20.97042557,0
臺北市大同區永樂里15鄰民樂街99之1號,25.056698,121.510915,大同區,2253601.36,6,568.15,868,0,0.3147461272,0.1748951027,0.4575579463,0.2525516172,1,-0.990049073,1.419085404,-0.9299179467,-1.440635159,-0.932768957,1,1,1,1,0,1,1,1,0,0,0.02518744679,7,2,0.135314168,0.0002909580843,2596.314931,20.97042557,0
臺北市中正區龍福里4鄰愛國西路2號,25.034397,121.515371,中正區,4852832.46,4,760.71,1869,368.2,0.123518205,0.2958249236,0.07784065993,0.9216984472,1,-0.7424462485,0.570808739,-0.8366090108,1.451576361,0.05377730018,1,1,1,1,1,0,1,1,1,1,0.00284427931,7,2,0.09943675772,0.0004931505871,2596.486067,21.36763512,0
臺北市信義區松隆里2鄰福德街87號,25.036978,121.581467,信義區,5953425.42,1,1120.77,1012,282.6,0.2151099806,0.1159336609,0.4347921109,1.054617436,1,-0.6376037335,-0.7016062578,-0.6621344811,-1.024572762,-0.1755772887,1,1,1,1,0,1,1,1,0,0,0.01084305764,7,2,0.3829178762,0.001042112091,5882.831443,22.33069826,0
臺北市大安區龍圖里8鄰信義路三段202號,25.03318,121.543324,大安區,7146045.27,1,1136.14,1851,139.95,0.07273951786,0.1449688157,0.06243992549,1.375389435,1,-0.5239947346,-0.7016062578,-0.6546866293,1.399568561,-0.5577902805,1,1,1,1,1,1,1,0,1,1,0.0006584266267,7,3,0.1400741295,0.0007430520986,3860.64034,22.68600766,1
臺北市大同區景星里5鄰迪化街二段94號,25.065618,121.509454,大同區,2253601.36,6,568.15,868,0,0.3201734795,0.09862461279,0.3632166761,0.1569494847,1,-0.990049073,1.419085404,-0.9299179467,-1.440635159,-0.932768957,1,1,1,1,0,1,1,1,0,0,0.01146928769,7,2,0.1117163955,0.0001808173786,2596.314931,20.97042557,0
臺北市大同區蓬萊里14鄰大龍街80號,25.065767,121.51596,大同區,2253601.36,6,568.15,868,0,0.0726542577,0.09573321874,0.398214895,0.5227533061,1,-0.990049073,1.419085404,-0.9299179467,-1.440635159,-0.932768957,1,1,1,1,1,1,1,1,0,0,0.002769754212,8,3,0.08094319592,0.0006022503526,2596.314931,20.97042557,1
臺北市大同區建明里18鄰華陰街233號,25.050649,121.513887,大同區,2253601.36,6,568.15,868,0,0.4812631603,0.1681616859,0.4380457464,0.5941726723,1,-0.990049073,1.419085404,-0.9299179467,-1.440635159,-0.932768957,0,1,1,1,0,1,1,1,0,0,0.03545105296,6,2,0.1553529418,0.0006845307284,2596.314931,20.97042557,1
臺北市內湖區港富里26鄰內湖路一段757號,25.078876,121.578669,內湖區,11254761.59,1,3157.87,1370,0,0.1598827217,0.1307612175,0.420137477,2.341560272,1,-0.1325983074,-0.7016062578,0.3249845116,0.009804584201,-0.932768957,1,1,1,1,1,1,1,0,0,1,0.008783587083,7,3,0.3553907081,0.001709168082,8215.154445,24.29395488,1
臺北市萬華區富民里6鄰桂林路131之1號,25.038571,121.500063,萬華區,3740889.23,9,885.22,1009,0,0.3297330264,0.1620931377,0.2306788033,0.2951560881,1,-0.8483699905,2.6915004,-0.7762751118,-1.033240729,-0.932768957,1,1,1,1,0,1,1,1,0,0,0.01232919631,7,2,0.07225049674,0.0002925233777,3707.521536,21.9206701,0
臺北市大安區敦安里5鄰敦化南路一段295巷54號,25.03534,121.552156,大安區,7146045.27,1,1136.14,1851,139.95,0.05189095009,0.2233223627,0.1539106722,2.354477225,1,-0.5239947346,-0.7016062578,-0.6546866293,1.399568561,-0.5577902805,1,1,1,1,1,0,1,0,1,1,0.001783579907,6,2,0.2145619925,0.001272002823,3860.64034,22.68600766,0
臺北市信義區景新里7鄰莊敬路323號,25.028186,121.563573,信義區,5953425.42,1,1120.77,1012,282.6,0.1871679719,0.1402542002,0.2733820428,2.28973558,1,-0.6376037335,-0.7016062578,-0.6621344811,-1.024572762,-0.1755772887,1,1,1,1,1,1,1,0,0,0,0.00717657776,7,3,0.3004021075,0.002262584566,5882.831443,22.33069826,1
臺北市內湖區紫陽里3鄰文德路279號,25.079384,121.589146,內湖區,11254761.59,1,3157.87,1370,0,0.1460748855,0.4242403055,0.4315146811,3.537114487,1,-0.1325983074,-0.7016062578,0.3249845116,0.009804584201,-0.932768957,1,0,1,0,1,0,1,0,0,1,0.02674133332,4,2,0.5009149361,0.002581835392,8215.154445,24.29395488,1
臺北市信義區西村里9鄰基隆路一段380號,25.034604,121.560275,信義區,5953425.42,1,1120.77,1012,282.6,0.2041815685,0.1335072911,0.2424279453,2.282846391,1,-0.6376037335,-0.7016062578,-0.6621344811,-1.024572762,-0.1755772887,1,1,1,1,0,1,1,0,0,0,0.006608519872,6,2,0.2900584024,0.002255777067,5882.831443,22.33069826,0
臺北市內湖區金湖里10鄰民權東路六段495號,25.073221,121.60509,內湖區,11254761.59,1,3157.87,1370,0,0.05398570442,0.4605198229,0.2744073686,1.656950514,1,-0.1325983074,-0.7016062578,0.3249845116,0.009804584201,-0.932768957,1,0,1,1,1,0,1,0,0,1,0.006822175238,5,2,0.394456448,0.00120945293,8215.154445,24.29395488,1
臺北市中正區東門里2鄰徐州路48之1號,25.040105,121.525108,中正區,4852832.46,4,760.71,1869,368.2,0.1542902955,0.450427506,0.2734521293,0.9312298083,1,-0.7424462485,0.570808739,-0.8366090108,1.451576361,0.05377730018,1,0,1,1,1,0,1,1,1,1,0.01900399133,6,2,0.1756339861,0.0004982502987,2596.486067,21.36763512,1
臺北市北投區石牌里1鄰西安街一段233號,25.111111,121.517471,北投區,32634930.67,3,5682.16,1300,379.25,0.2453769899,0.2782738739,0.1690220838,1.194267633,1,1.904077174,0.1466704068,1.548181508,-0.1924479696,0.0833844054,1,1,1,1,0,0,1,1,0,0,0.01154116686,6,1,0.1731682369,0.0009186674103,25103.79282,25.87690477,0
臺北市大安區龍生里1鄰和平東路二段231號,25.025137,121.54295,大安區,7146045.27,1,1136.14,1851,139.95,0.08241828207,0.1437660744,0.1354813752,1.071180869,1,-0.5239947346,-0.7016062578,-0.6546866293,1.399568561,-0.5577902805,1,1,1,1,1,1,1,1,1,1,0.00160531243,8,3,0.1808328658,0.0005787038732,3860.64034,22.68600766,1
臺北市大安區仁慈里10鄰復興南路一段295巷13弄10號,25.035399,121.544405,大安區,7146045.27,1,1136.14,1851,139.95,0.08468541048,0.06002372681,0.1540267114,1.488891509,1,-0.5239947346,-0.7016062578,-0.6546866293,1.399568561,-0.5577902805,1,1,1,1,1,1,1,0,1,1,0.0007829384049,7,3,0.1493679243,0.0008043714259,3860.64034,22.68600766,1
臺北市中正區東門里2鄰徐州路48之1號,25.040105,121.525108,中正區,4852832.46,4,760.71,1869,368.2,0.1542902955,0.450427506,0.2734521293,0.9312298083,1,-0.7424462485,0.570808739,-0.8366090108,1.451576361,0.05377730018,1,0,1,1,1,0,1,1,1,1,0.01900399133,6,2,0.1756339861,0.0004982502987,2596.486067,21.36763512,1
臺北市北投區福興里10鄰致遠一路二段127號,25.11355,121.512399,北投區,32634930.67,3,5682.16,1300,379.25,0.1971595247,0.2783570165,0.3930360914,1.300106791,1,1.904077174,0.1466704068,1.548181508,-0.1924479696,0.0833844054,1,1,1,1,0,0,1,1,0,0,0.02157011039,6,1,0.2171381581,0.001000082147,25103.79282,25.87690477,0
臺北市中山區江寧里19鄰錦州街459號,25.06031,121.543572,中山區,7723327.91,4,1368.209961,1440,1361.68,0.02039776952,0.1855558762,0.0847462337,0.9780483416,1,-0.4690027747,0.570808739,-0.5422323236,0.212057138,2.715683806,1,1,1,1,1,1,1,1,0,1,0.0003207582229,8,3,0.05813997588,0.0006792002372,5363.42216,17.73615688,1
臺北市中正區南福里20鄰南昌路一段126巷17號,25.02915,121.51742,中正區,4852832.46,4,760.71,1869,368.2,0.1894745168,0.1601950769,0.2641031366,0.3887337271,1,-0.7424462485,0.570808739,-0.8366090108,1.451576361,0.05377730018,1,1,1,1,1,1,1,1,1,1,0.008016292075,8,3,0.122754546,0.0002079902231,2596.486067,21.36763512,1
臺北市信義區興雅里2鄰松高路19號,25.039359,121.566667,信義區,5953425.42,1,1120.77,1012,282.6,0.3567284471,0.1471558465,0.1435164096,1.295093941,1,-0.6376037335,-0.7016062578,-0.6621344811,-1.024572762,-0.1755772887,0,1,1,1,0,1,1,1,0,0,0.007533847511,6,2,0.3237003516,0.001279737096,5882.831443,22.33069826,1
臺北市北投區榮光里3鄰石牌路一段166巷144號,25.111265,121.515859,北投區,32634930.67,3,5682.16,1300,379.25,0.07591541162,0.09001682996,0.1743672946,1.382475377,1,1.904077174,0.1466704068,1.548181508,-0.1924479696,0.0833844054,1,1,1,1,1,1,1,0,0,0,0.001191567626,7,3,0.08507488405,0.001063442598,25103.79282,25.87690477,1
臺北市北投區中央里17鄰中央南路一段128號,25.130151,121.500985,北投區,32634930.67,3,5682.16,1300,379.25,0.2308735552,0.2372817294,0.2342108373,0.9344432479,1,1.904077174,0.1466704068,1.548181508,-0.1924479696,0.0833844054,1,1,1,1,0,0,1,1,0,0,0.01283055599,6,1,0.1755915305,0.0007188024984,25103.79282,25.87690477,0
臺北市信義區泰和里26鄰吳興街600巷100弄121號,25.014862,121.572942,信義區,5953425.42,1,1120.77,1012,282.6,0.3806750999,0.2712323618,1.024711891,2.023836242,1,-0.6376037335,-0.7016062578,-0.6621344811,-1.024572762,-0.1755772887,0,1,1,1,0,0,0,0,0,0,0.1058029439,3,0,0.8383096763,0.001999838184,5882.831443,22.33069826,0
臺北市南港區萬福里11鄰同德路92號,25.0459,121.585707,南港區,9032463.69,0,2184.24,738,0,0.1383486491,0.1601966756,0.3092056603,1.20364301,1,-0.3442944651,-1.12574459,-0.1468080685,-1.816247044,-0.932768957,1,1,1,1,1,1,1,1,0,0,0.006852923088,8,3,0.607750985,0.001630952588,12239.11069,23.70535894,1
臺北市萬華區青山里13鄰廣州街277號,25.036885,121.49597,萬華區,3740889.23,9,885.22,1009,0,0.1013343309,0.08101132684,0.4773913774,0.2494646847,1,-0.8483699905,2.6915004,-0.7762751118,-1.033240729,-0.932768957,1,1,1,1,1,1,1,1,0,0,0.003919014949,8,3,0.06597370351,0.0002472395289,3707.521536,21.9206701,1
